Nombre,Categoría,Dirección,Teléfono,Web,Email,Valoración,Nº Reseñas,Nivel Precio,Tipos Google,Latitud,Longitud,Horarios,Estado,Google Maps,Place ID,Provincia,Región,País,Web válida (IA),Calidad (IA),Búsqueda
TAIBAI Medicina Tradicional China,🪷 Ayurveda,"C. del Puerto de Maspalomas, 8, Piso1 puerta 4, Fuencarral-El Pardo, 28029 Madrid, Spain",670 08 25 63,http://www.taibai.es/,contacto@taibai.es,5,56,,"establishment, health, point_of_interest",40.4780559,-3.7137889,,OPERATIONAL,,ChIJMUNZqHUpQg0RrdHbg3dT-k8,Madrid,Comunidad de Madrid,España,No,2,ayurveda · españa
SasiThai Thai Massage Madrid,🪷 Ayurveda,"C. de Manuel de Falla, 8, Chamartín, 28036 Madrid, Spain",912 53 04 58,https://sasithai.es/,contacto@sasithai.es,4.9,923,,"establishment, point_of_interest, spa",40.4550599,-3.6874962,,OPERATIONAL,,ChIJJQg_hn0nQg0RIN8dYjyptfI,Madrid,Comunidad de Madrid,España,No,1,ayurveda · españa
"imohe · Instituto de Salud, Medicina y Oncología Holística",🪷 Ayurveda,"Av. Diagonal, 419, Eixample, 08021 3o1a, Barcelona, Spain",935 85 11 00,http://imohe.es/,imohe@imohe.es,4.2,24,,"establishment, health, point_of_interest",41.3947472,2.1536769,,OPERATIONAL,,ChIJR-y12A-YpBIRkiwTqJsSj5I,Barcelona,Cataluña,España,No,1,ayurveda · españa
Sant Pau Centre Terapèutic,🪷 Ayurveda,"Carrer de Sant Antoni Maria Claret, 234, Principal, 1º, Eixample, 08025 Barcelona, Spain",617 89 25 83,https://www.centresantpau.com/,centresantpau@gmail.com,4.9,249,,"establishment, health, point_of_interest",41.4116096,2.1750814,,OPERATIONAL,,ChIJ270tA9CipBIRbd6tlbJb8GQ,Barcelona,Cataluña,España,No,1,ayurveda · españa
Sergiolistico,🪷 Ayurveda,"Carrer Margarida Xirgu, 50, 08750 Molins de Rei, Barcelona, Spain",679 29 10 53,https://sergiolistico.com/,usuario@dominio.com,5,46,,"establishment, health, point_of_interest",41.4125992,2.0235625,,OPERATIONAL,,ChIJ1cRim86bpBIRPeC_84O3qjc,Barcelona,Cataluña,España,No,1,ayurveda · españa
RAK SAENG - Escuela y Centro de Masaje Tailandés en Madrid,🪷 Ayurveda,"C. Mercedes Domingo, 28, Carabanchel, 28019 Madrid, Spain",609 87 85 61,http://www.raksaeng.es/,info@raksaeng.es,5,148,,"establishment, health, point_of_interest, spa",40.3855747,-3.721884,,OPERATIONAL,,ChIJAdroPzEmQg0RaG9MbNeBoLk,Madrid,Comunidad de Madrid,España,No,1,ayurveda · españa
Herbodietètica Pronaturas,🪷 Ayurveda,"Carrer de Sant Felip, 13, 08320 El Masnou, Barcelona, Spain",935 40 32 55,http://www.herbodieteticapronaturas.com/,miguelangelmansilla1@hotmail.com,4.7,20,,"establishment, gym, health, point_of_interest, store",41.4800711,2.3196637,,OPERATIONAL,,ChIJnao6U76wpBIR8VzYRc_omjE,Barcelona,Cataluña,España,No,1,ayurveda · españa
Moon Relax Spa,🧖‍♀️ Spa,"Pl. de la Sagrada Familia, 10, 6.1, Eixample, 08025 Barcelona, Spain",684 33 71 86,https://moonrelaxspa.com/,hello@moonrelaxspa.com,4.9,897,,"establishment, point_of_interest",41.4031052,2.1723217,,OPERATIONAL,,ChIJW92sMKyjpBIRjOUtI452xHo,Barcelona,Cataluña,España,No,1,ayurveda · españa
Evasiom Spa,🧖‍♀️ Spa,"Carrer d'Aribau, 133, Eixample, 08036 Barcelona, Spain",934 10 76 02,http://www.evasiomspa.com/,info@evasiomspa.com,4.6,739,,"establishment, point_of_interest, spa",41.391877,2.154564,,OPERATIONAL,,ChIJIw18ppqipBIRQEBa4W-WKLE,Barcelona,Cataluña,España,No,1,ayurveda · españa
Institut de Salut Holística Rosselló,🪷 Ayurveda,"Carrer del Rosselló, 102, Entlo 1, Eixample, 08029 Barcelona, Spain",695 26 01 51,https://www.institutsalutholistica.com/,info@institutsalutholistica.com,4.5,466,,"establishment, health, point_of_interest",41.3877881,2.1501795,,OPERATIONAL,,ChIJezejdoSipBIRVEVYmQRme4M,Barcelona,Cataluña,España,No,1,ayurveda · españa
Flor de Lluna Teràpies,🪷 Ayurveda,"Carrer de Bailèn, 113, Eixample, 08009 Barcelona, Spain",644 70 94 03,http://www.maar-autocuraconscient.com/,usuario@dominio.com,5,64,,"establishment, health, point_of_interest",41.3976004,2.1694703,,OPERATIONAL,,ChIJS_jOTL29pBIRysn1JZy-xD0,Barcelona,Cataluña,España,No,1,ayurveda · españa
Centro de Terapia Natural Arq Nature,🪷 Ayurveda,"Carrer del Garraf, 6, 08184 Palau-solità i Plegamans, Barcelona, Spain",938 64 43 36,https://arqnature.com/,info@arqnature.com,5,16,,"establishment, health, point_of_interest",41.5813196,2.1817818,,OPERATIONAL,,ChIJOfQAd3_ApBIRiml_N7GL49w,Barcelona,Cataluña,España,No,1,ayurveda · españa
VADESALUD,🪷 Ayurveda,"Carrer Marina &, Carrer Tarragona, 2, 08390 Montgat, Barcelona, Spain",935 25 31 62,https://www.instagram.com/vadesalud.montgat,asociaciondemujeresmonteviejo@gmail.com,4.5,24,,"establishment, health, point_of_interest",41.4640964,2.2734125,,OPERATIONAL,,ChIJf5ii7kC6pBIRqbG2auRdyDg,Barcelona,Cataluña,España,No,1,ayurveda · españa
EQM,🪷 Ayurveda,"Calle de las Peñuelas, 38, Arganzuela, 28005 Madrid, Spain",677 77 97 32,http://www.eqm.es/,recepcion@eqm.es,4.7,123,,"establishment, health, point_of_interest",40.4014686,-3.7030984,,OPERATIONAL,,ChIJI_O5rsQoQg0Rak134YZjWiQ,Madrid,Comunidad de Madrid,España,No,1,ayurveda · españa
Masajes Sol i LLuna,🪷 Ayurveda,"C. de Garrigues, 3-5, piso 2 puerta C, Ciutat Vella, 46001 Valencia, Spain",658 32 46 91,https://www.masajesolilluna.com/,citas@masajesolilluna.com,5,532,,"establishment, health, point_of_interest",39.4706512,-0.3785064,,OPERATIONAL,,ChIJ0yu1eGlPYA0RWbrG4mK6F_E,Valencia,Comunidad Valenciana,España,No,1,ayurveda · españa
Ashvattha Quiromasaje,🪷 Ayurveda,"C. del Obispo Jaime Pérez, 15, PUERTA 9, Quatre Carreres, 46006 Valencia, Spain",613 40 12 28,http://ashvatthaquiromasaje.com/,ashvattha.quiromasaje@gmail.com,5,232,,"establishment, point_of_interest",39.4589299,-0.3659363,,OPERATIONAL,,ChIJ3RfwNd9PYA0RcOIF42_ODIQ,Valencia,Comunidad Valenciana,España,No,2,ayurveda · españa
Clínica Estética Integral Doshas,🪷 Ayurveda,"Av. del Regne de València, 26, L'Eixample, 46005 València, Valencia, Spain",686 28 57 17,https://doshas.es/,info@doshas.es,4.8,95,,"establishment, health, point_of_interest",39.4641182,-0.3707345,,OPERATIONAL,,ChIJCXfHf6hJYA0R3kbGjqGp7A4,Valencia,Comunidad Valenciana,España,No,2,ayurveda · españa
Katia Carini - Masaje | Ayurveda | Reiki,🪷 Ayurveda,"C/ de Ribera, 14, Ciutat Vella, 46002 València, Valencia, Spain",644 92 40 99,http://www.katiacarini.com/,ayuryogakate@gmail.com,5,217,,"establishment, health, point_of_interest",39.4679799,-0.3760419,,OPERATIONAL,,ChIJaU4f2fFJYA0R_CKhdI7C2gw,Valencia,Comunidad Valenciana,España,No,1,ayurveda · españa
Gobinde Yoga,🪷 Ayurveda,"C/ del Pintor Salvador Abril, 31, L'Eixample, 46005 València, Valencia, Spain",963 25 06 79,http://gobinde.com/,info@gobinde.com,5,72,,"establishment, gym, health, point_of_interest",39.461908,-0.36946,,OPERATIONAL,,ChIJazNuTcpIYA0ROA_a8Vh8fK8,Valencia,Comunidad Valenciana,España,No,2,ayurveda · españa
Wellnes Avenida,🪷 Ayurveda,"Av. del Cid, 94, L'Olivereta, 46018 València, Valencia, Spain",963 26 08 60,http://www.wellnessavenida.com/,wellnes.avenida.info@gmail.com,4.6,256,,"establishment, health, point_of_interest, spa",39.4694157,-0.4016211,,OPERATIONAL,,ChIJBwGAxG1PYA0R-mSnV3Bq9j0,Valencia,Comunidad Valenciana,España,No,1,ayurveda · españa
Yoga with Joy : Yoga & Masajes,🪷 Ayurveda,"Carrer de Borrull, 13, Extramurs, 46008 València, Valencia, Spain",603 73 14 12,http://yogawithjoy.fr/,hibiscus@qodeinteractive.com,5,78,,"establishment, point_of_interest",39.4745453,-0.3851541,,OPERATIONAL,,ChIJWTnpbExPYA0RY216Wrd5G8Q,Valencia,Comunidad Valenciana,España,No,1,ayurveda · españa
Ro-Ki Massages Valencia,🪷 Ayurveda,"Calle Del, Carrer del Riu Odiel, 30, Poblados Marítimos, 46024 València, Valencia, Spain",655 25 04 02,http://www.ro-ki.net/,info@ro-ki.net,5,159,,"establishment, health, point_of_interest, school",39.4481781,-0.332554,,OPERATIONAL,,ChIJ81tdjphJYA0R9tnUf1A_g_0,Valencia,Comunidad Valenciana,España,No,2,ayurveda · españa
Ayurveda Botanic I Guilu Cabalé,🪷 Ayurveda,"C/ del Túria, 73, Extramurs, 46008 València, Valencia, Spain",659 09 25 78,https://www.ayurvedabotanic.com/,guilucabale@gmail.com,5,23,,"establishment, health, point_of_interest",39.4781901,-0.385506,,OPERATIONAL,,ChIJwbTnvgNPYA0RlpNh7PL70J0,Valencia,Comunidad Valenciana,España,No,1,ayurveda · españa
"Vedic healings (Ayurveda, Panchakarma & Tantra)",🪷 Ayurveda,"Carrer de Lanzarote, 6, Poblados Marítimos, 46011 València, Valencia, Spain",663 93 88 27,https://www.vedichealings.com/,infovedichealingsespana@gmail.com,5,39,,"establishment, health, point_of_interest, spa",39.4809566,-0.3286296,,OPERATIONAL,,ChIJJ7RqhZ1JYA0Rm7KW3wdd-TM,Valencia,Comunidad Valenciana,España,No,1,ayurveda · españa
Espai Món Sà,🪷 Ayurveda,"Avinguda Santa Maria del Puig, 13, 46210 Picanya, Valencia, Spain",607 37 64 61,http://www.monsavalencia.org/,espai@monsavalencia.org,5,46,,"establishment, gym, health, point_of_interest",39.4331622,-0.4336792,,OPERATIONAL,,ChIJie-8MjhOYA0RWPwHYGg8ioU,Valencia,Comunidad Valenciana,España,No,2,ayurveda · españa
Ayurveda Shobha Lad,🪷 Ayurveda,"C. San Vicente Mártir, 98, pta 1, Extramurs, 46007 Valencia, Spain",647 00 98 99,http://www.shobhalad.com/,sandersbrew@hotmail.com,4.7,89,,"establishment, health, point_of_interest",39.4675374,-0.380479,,OPERATIONAL,,ChIJw9bsnklPYA0Reh8FWmbVkCQ,Valencia,Comunidad Valenciana,España,No,1,ayurveda · españa
Sukha Masajes,🪷 Ayurveda,"Calle Dr. Nacher, 7, 46370 Chiva, Valencia, Spain",676 78 44 99,https://www.sukhamasajes.com/,cris.guzmantorres7@gmail.com,5,91,,"establishment, point_of_interest",39.4723539,-0.7173763,,OPERATIONAL,,ChIJWzT9HiZJYA0RNyL05INUpAE,Valencia,Comunidad Valenciana,España,No,1,ayurveda · españa
Massage Oliva - in studio or home visits | Masaje en gabinete o a domicilio,🪷 Ayurveda,"Av. Matisse, 11, adosado 16, 46780 Oliva, Valencia, Spain",632 92 24 04,https://ibizamassages.com/,info@ibizamassages.com,5,18,,"establishment, point_of_interest, spa",38.8880872,-0.054134,,OPERATIONAL,,ChIJQxYHlynjYQ0RJ87O3f51KJo,Valencia,Comunidad Valenciana,España,No,1,ayurveda · españa
DHARA RETIRO YOGA & AYURVEDA,🪷 Ayurveda,"Carrer Almàssera, 30, 03787 Benirrama, Alicante, Spain",637 42 43 19,https://dharaholisticare.com/,info@dharaholisticare.com,5,18,,"establishment, gym, health, point_of_interest",38.8307093,-0.1970343,,OPERATIONAL,,ChIJh9f4mZnvYQ0RoFwa7_2M_FI,Alicante,Comunidad Valenciana,España,No,1,ayurveda · españa
Encuentra tu equilibrio by Eva Salmerón | Terapia emocional LNT® I Masajes I Neurodanza,🪷 Ayurveda,"Parque, tienda La casa verda, Pl. Mestre Ferrero, 4, 46870 Ontinyent, Valencia, Spain",610 47 47 97,http://byevasalmeron.com/,equilibriobyeva@gmail.com,5,32,,"establishment, health, point_of_interest, spa",38.8226106,-0.5994531,,OPERATIONAL,,ChIJAyuGiP53YQ0R_3bwBpOQ6kY,Alicante,Comunidad Valenciana,España,No,1,ayurveda · españa
iTRAINING - ALICANTE PAU 1 - YOGA & BARRE,🪷 Ayurveda,"C. Médico José Maroto, 03005 Alicante (Alacant), Alicante, Spain",613 82 57 77,http://itraining.es/,info@grupoitraining.com,5,37,,"establishment, gym, health, point_of_interest",38.3531038,-0.513784,,OPERATIONAL,,ChIJI_ULX6g3Yg0RdW7Wk3uSim8,Alicante,Comunidad Valenciana,España,No,1,ayurveda · españa
Yoga Estudio Sirsásana,🪷 Ayurveda,"Carrer Riu Segura 30, Calle La Paz, 48, 03320 La Torre del Pla, Alicante, Spain",646 24 38 54,http://www.yogasirsasana.com/,estudio@yogasirsasana.com,5,45,,"establishment, gym, health, point_of_interest",38.294407,-0.5898493,,OPERATIONAL,,ChIJ13w-fLhKYg0ReiGDbFylmiI,Alicante,Comunidad Valenciana,España,No,1,ayurveda · españa
Millennium Thai Massage,🪷 Ayurveda,"Levante beach, Av. de Madrid, 1, 03503 Benidorm, Alicante, Spain",692 47 52 39,http://millenniumthaimassage.com/,info@millenniumthaimassage.com,5,681,,"establishment, health, point_of_interest, spa",38.5360664,-0.119972,,OPERATIONAL,,ChIJ9bwv1gwFYg0RoB_4LGN1xsY,Alicante,Comunidad Valenciana,España,No,1,ayurveda · españa
Health Forest Worldwide,🪷 Ayurveda,"C. Constitución, 4, Bajo L2, 03590 Altea, Alicante, Spain",691 07 58 64,https://healthforest.es/,healthforestspain@gmail.com,5,45,,"establishment, health, point_of_interest",38.6012795,-0.0468853,,OPERATIONAL,,ChIJkSupeWABYg0Ra6KwrNjh37o,Alicante,Comunidad Valenciana,España,No,1,ayurveda · españa
Espasana Natural,🪷 Ayurveda,"C. de Lepanto, 38, 03400 Villena, Alicante, Spain",966 15 32 04,https://www.espasananatural.com/,espasananatural8@gmail.com,4.6,22,,"establishment, health, point_of_interest",38.6390741,-0.8691543,,OPERATIONAL,,ChIJSXhJMp3fYw0RnAO9oarja28,Alicante,Comunidad Valenciana,España,No,1,ayurveda · españa
El Templo by Zen Estétic,🪷 Ayurveda,"Av. Goleta, 25, Local 1, 03540 Alicante (Alacant), Alicante, Spain",683 41 65 60,https://eltemplobyzenestetic.es/el-templo/,centro@eltemplobyzenestetic.es,4.9,173,,"establishment, gym, health, place_of_worship, point_of_interest",38.3628319,-0.4212009,,OPERATIONAL,,ChIJOximrjE5Yg0RGUY4mssVd_8,Alicante,Comunidad Valenciana,España,No,1,ayurveda · españa
Kundalini Yoga. Restaurativo. Meditación y Gong.Movimiento Sentido ( Estiramientos y Movilidad ),🪷 Ayurveda,"C. del Notario Salvador Montesinos Bonet, 21, 03550 Sant Joan d'Alacant, Alicante, Spain",672 99 33 51,http://www.movimientosentido.es/,info@movimientosentido.es,5,44,,"establishment, point_of_interest",38.3967112,-0.4317581,,OPERATIONAL,,ChIJVfzR3mU5Yg0RwF1Lrd_XHTQ,Alicante,Comunidad Valenciana,España,No,1,ayurveda · españa
Miriam Alchemy,🧖‍♀️ Spa,"C. Pere Joan Perpinyà, 03204 Elx, Alicante, Spain",661 20 77 69,https://www.miriamalchemy.com/,info@miriamalchemy.com,5,142,,"establishment, health, point_of_interest, spa",38.2585125,-0.7039675,,OPERATIONAL,,ChIJcUlAk6e3Yw0R3t9dEEQQjLU,Alicante,Comunidad Valenciana,España,No,1,ayurveda · españa
Dayananda Yoga,🪷 Ayurveda,"C. Castaños, 37, 5 g, 03001 Alicante (Alacant), Alicante, Spain",682 75 66 33,https://dayananda.es/,info@dayananda.es,4.9,33,,"establishment, gym, health, point_of_interest",38.3466713,-0.486062,,OPERATIONAL,,ChIJa9kQiAI3Yg0RcQB3h6Psyro,Alicante,Comunidad Valenciana,España,No,1,ayurveda · españa
Victoria Jourdan Massages,🧖‍♀️ Spa,"5 Rue Gaston Larré, 64200 Biarritz, France",06 17 51 88 76,https://www.victoriajourdanmassagesbienetre.com/,jourdanvictoria@gmail.com,5,57,,"establishment, point_of_interest, spa",43.4815492,-1.5655981,,OPERATIONAL,,ChIJc-z-dAZrUQ0Rf155iWde3a0,Pirineos Atlánticos,,Francia,No,1,ayurveda · españa
Yoga & Ayurvéda Biarritz,🪷 Ayurveda,"1bis Av. du Parc d'Hiver, 64200 Biarritz, France",07 77 69 34 19,https://www.biarritz-yoga.fr/,bhima8001@gmail.com,5,21,,"establishment, food, gym, health, point_of_interest",43.4805581,-1.5407142,,OPERATIONAL,,ChIJ_-4lQy9rUQ0RDKYCASyD5FE,Pirineos Atlánticos,,Francia,No,1,ayurveda · españa
ANANDA Centre de Soins Ayurvédiques,🪷 Ayurveda,"Plage de Socoa, 103 Rte de la Corniche, 64122 Urrugne, France",05 59 41 22 64,https://ananda-ayurveda.fr/,info@email.com,5,142,,"establishment, health, point_of_interest",43.3907807,-1.6861393,,OPERATIONAL,,ChIJaY2nqTgVUQ0R5AypwQyT6xI,Gipuzkoa,País Vasco,España,No,1,ayurveda · españa
"Samaveda; Ayurveda, Masajes, Alimentación, Yoga",🪷 Ayurveda,"Calle Lope de Irigoyen, 15 Entrada por Lucas de Berroa, a la altura de portal 18, 20301 Irun, Guipúzcoa, Spain",606 65 91 73,http://www.samaveda.es/,samavedacentro@gmail.com,5,32,,"establishment, gym, health, point_of_interest",43.3426426,-1.7970784,,OPERATIONAL,,ChIJ4zDZNYSpUQ0RzNcM0Enj0Ak,Gipuzkoa,País Vasco,España,No,1,ayurveda · españa
Alice MASSAGE & YOGA - BAYONNE,🪷 Ayurveda,"15 Rue des Pontrits étage 1 - appartement 2, 64600 Anglet, France",06 28 11 81 91,https://alicegermain.fr/,alicem.germain@gmail.com,5,33,,"establishment, point_of_interest, spa",43.4919862,-1.5309085,,OPERATIONAL,,ChIJe7FTI61rUQ0Rv2vhz4xHDnI,Pirineos Atlánticos,,Francia,No,1,ayurveda · españa
Ayurvéda - Nour Lucie Joao,🪷 Ayurveda,"5 Chem. de Lantegia, 64122 Urrugne, France",06 95 45 47 30,https://www.ayurveda-auquotidien.com/,lucie.joao.ayurveda@gmail.com,4.9,50,,"establishment, health, point_of_interest",43.3479976,-1.6890155,,OPERATIONAL,,ChIJCUzG_ZVBUQ0Ru6650is4hOE,Gipuzkoa,País Vasco,España,No,1,ayurveda · españa
"Masaje y Osteopatía, Kalyaana",🪷 Ayurveda,"C. Belgrado, 16, b, 28232 Las Rozas de Madrid, Madrid, Spain",681 90 69 62,https://kalyaana.es/,info@kalyaana.es,5,20,,"establishment, health, point_of_interest",40.5049246,-3.8921387,,OPERATIONAL,,ChIJhZDoKHiJQQ0R4NvQJsr_bJo,Madrid,Comunidad de Madrid,España,No,1,ayurveda · españa
Yo Me Cuido,🪷 Ayurveda,"Calle de las Delicias, 9, Arganzuela, 28045 Madrid, Spain",914 67 32 87,https://www.yo-mecuido.es/,masajesyomecuido@gmail.com,4.8,84,,"establishment, health, point_of_interest",40.4042682,-3.694603,,OPERATIONAL,,ChIJhynQyS8mQg0R33eXAiYB1Lc,Madrid,Comunidad de Madrid,España,No,2,ayurveda · españa
Quiere T Sport,🪷 Ayurveda,"Pl. Conselleiro Fdo, Av. General Salgado, 16, 27560 Monterroso, Lugo, Spain",639 52 60 84,https://sites.google.com/view/quiere-t-sport/p%C3%A1gina-principal,contacto@speedstacks.es,5,40,,"establishment, health, point_of_interest",42.7921591,-7.8366762,,OPERATIONAL,,ChIJz99VIijXLw0RgnzEFfGtZWY,Ourense,Galicia,España,No,2,ayurveda · españa
PRANA YOGA Y MASAJE,🪷 Ayurveda,"Rúa Castelao, 5, 1ºC, 36001 Pontevedra, Spain",616 94 88 21,https://pranayogaymasaje.es/,info@pranayogaymasaje.es,4.9,32,,"establishment, gym, health, point_of_interest",42.4299943,-8.6422812,,OPERATIONAL,,ChIJr8y5qKxxLw0RynyKinMNXXc,Pontevedra,Galicia,España,No,1,ayurveda · españa
Bio Terapias Eva Varela,🪷 Ayurveda,"Av. de Peinador, 3, Bajo, Cabral, 36416, Pontevedra, Spain",661 93 55 52,https://www.bioterapiasevavarela.es/,bioterapiasevavarela@gmail.com,4.6,17,,"establishment, health, point_of_interest",42.2088729,-8.6548727,,OPERATIONAL,,ChIJfVcKTuGHJQ0R8NEqLTK7b1E,Pontevedra,Galicia,España,No,2,ayurveda · españa
"Aruna Vigo - Reflexologia, Craneosacral y Meditación",🪷 Ayurveda,"Rúa Colón, 9, Santiago de Vigo, 36201 Vigo, Pontevedra, Spain",690 93 65 55,http://www.datelobueno.com/,datelobueno@gmail.com,5,42,,"establishment, health, point_of_interest, spa",42.2385203,-8.720245,,OPERATIONAL,,ChIJCSfV-GliLw0RRvfo-n3G4Y4,Pontevedra,Galicia,España,No,2,ayurveda · españa
Spa urbano Serenità,🪷 Ayurveda,"Av. das Camelias, 89, bajo, 36211 Vigo, Pontevedra, Spain",986 41 25 00,https://serenitaurbanspa.com/,info@serenitaurbanspa.com,4.9,235,,"establishment, point_of_interest, spa",42.2276713,-8.7299602,,OPERATIONAL,,ChIJ5X9NjF1jLw0RDVUvAkCQBdY,Pontevedra,Galicia,España,No,2,ayurveda · españa
YOGA EN ALMENDRALEJO LA SALITA DE YOGA - MARISA ALVAREZ,🪷 Ayurveda,"C. Costa Rica, Nº3, 06200 Almendralejo, Badajoz, Spain",616 72 28 44,http://www.extremaduradavida.com/item/centrodeyogaanandasamadhi/,farfi40@hotmail.com,4.9,31,,"establishment, gym, health, point_of_interest",38.680591,-6.4116266,,CLOSED_TEMPORARILY,,ChIJtQsqPninFg0ReysfR-qXYKk,Badajoz,Extremadura,España,No,1,ayurveda · españa
Fanny Ros Ayurveda,🪷 Ayurveda,"20 bis rue Ibn Sinaï dit Avicenne, 663330 Cabestany, 66000 Perpignan, France",06 03 33 05 52,https://fannyros-yoga.com/massage-ayurvedique/,fannyros.yoga@gmail.com,5,20,,"establishment, point_of_interest, spa",42.6916448,2.9386655,,OPERATIONAL,,ChIJY7oTeKGXkokRfVTv1xOMjeM,Girona,Cataluña,España,No,2,ayurveda · españa
Izabel Yogizayurveda,🪷 Ayurveda,"5 Rue Horace Chauvet, 66100 Perpignan, France",07 56 99 78 65,https://www.yogi-z-ayurveda-aroma-reiki.fr/,yogizayurveda@gmail.com,5,140,,"establishment, health, point_of_interest, spa",42.689255,2.9045943,,OPERATIONAL,,ChIJNxR1TzlvsBIRvElE3DGlyWM,Girona,Cataluña,España,No,2,ayurveda · españa
Isabelle Moulin - Psycho-énergéticienne - Perpignan,🪷 Ayurveda,"14 Rue Louis David, 66000 Perpignan, France",06 86 40 13 72,http://www.isabellemoulin.com/,contact@isabellemoulin.com,4.9,59,,"establishment, health, point_of_interest",42.6972172,2.9078915,,OPERATIONAL,,ChIJ6RvASF1vsBIRSowzX8NaGiQ,Girona,Cataluña,España,No,2,ayurveda · españa
Fanny Ros yoga,🪷 Ayurveda,"20 Rue Ibn Sinaï dit Avicenne, 66330 Cabestany, France",06 03 33 05 52,https://fannyros-yoga.com/,fannyros.yoga@gmail.com,5,85,,"establishment, point_of_interest",42.6916448,2.9386655,,OPERATIONAL,,ChIJ3zZK_bpvsBIROa0LGRbOJys,Girona,Cataluña,España,No,2,ayurveda · españa
Ekyoga France - Rituel Massage Abhyanga Ayurvedic Pour Femmes À Cheval - Equicoaching - Coaching Business-,🪷 Ayurveda,"22 Av. Armand Lanoux, 66750 Saint-Cyprien, France",06 50 61 07 57,https://www.ekyogafrance.com/,utilisateur@domaine.com,5,34,,"establishment, gym, health, point_of_interest",42.6063719,3.0402995,,OPERATIONAL,,ChIJYXS5JNPnZIMRNkUJQCDWu5M,Girona,Cataluña,España,No,2,ayurveda · españa
Paisible Evasion,🪷 Ayurveda,"1 Av. de la République, 66650 Banyuls-sur-Mer, France",04 30 19 77 04,http://paisible-evasion.fr/,contact@paisible-evasion.fr,5,75,,"establishment, point_of_interest, spa",42.4832754,3.1290592,,OPERATIONAL,,ChIJFyU7hKR_uhIRKrWyocHOnsQ,Girona,Cataluña,España,No,2,ayurveda · españa
Fleur De Lumière,🪷 Ayurveda,"Cabra Salada Alta, Lieu dit, 66170 Millas, France",06 19 98 28 70,https://www.fleurdelumiere.com/,delphineoceane@yahoo.fr,5,21,,"establishment, health, point_of_interest",42.7145653,2.6899668,,OPERATIONAL,,ChIJAdcd8cLDsxIRRAINNgPDAaE,Girona,Cataluña,España,No,2,ayurveda · españa
Abbyveda Massages ô féminin,🪷 Ayurveda,"3 bis Av. du Général Leclerc, 66200 Elne, France",07 66 38 10 47,http://abbyveda.com/,abbyvedamassages@gmail.com,5,53,,"establishment, point_of_interest, spa",42.6009392,2.9702621,,OPERATIONAL,,ChIJt8n6h75vsBIRCmSjMIKYKnA,Girona,Cataluña,España,No,2,ayurveda · españa
Centre Béa - Massages et Ayurvéda,🪷 Ayurveda,"4 Rue Augustin Thierry, 66000 Perpignan, France",06 49 95 21 40,http://centrebea.fr/,centrebea@gmail.com,4.9,174,,"establishment, point_of_interest, spa, travel_agency",42.6961128,2.8875893,,OPERATIONAL,,ChIJeQ1tSK1vsBIRn8mAwtIs8HQ,Girona,Cataluña,España,No,2,ayurveda · españa
Naturopathie & Massages_Rébecca Morael,🧖‍♀️ Spa,"4 Rue Simon Bonafos, 66600 Rivesaltes, France",06 32 30 07 75,http://rebeccamorael.com/,naturopathie@rebeccamorael.com,4.9,33,,"establishment, health, point_of_interest, spa",42.7684078,2.8698359,,OPERATIONAL,,ChIJEZIZWJlpsBIR_LSJ7IUBm84,Girona,Cataluña,España,No,1,ayurveda · españa
Carole Martinez Massage Ayurvedic &Yoga. Perpignan 66000 Et Alentours,🪷 Ayurveda,"Espace Santé Chrysalide, 2 Rue Jordi Carbonell I Tries, 66000 Perpignan, France",07 67 39 10 77,http://massageyoga.fr/,carole@massageyoga.fr,5,19,,"establishment, point_of_interest, spa",42.700474,2.9439156,,OPERATIONAL,,ChIJEa1RocBlsBIRcXK5GkiphsE,Girona,Cataluña,España,No,2,ayurveda · españa
Jayna Thérapeute Ayurvedique,🪷 Ayurveda,"Av. mère Teresa, 66200 Elne, France",07 87 28 32 77,https://jayna-ayurveda.com/,contact@jayna-ayurveda.com,5,21,,"establishment, health, point_of_interest",42.61039,2.9684549,,OPERATIONAL,,ChIJZXQ395qEHIERW8RhDQTzns0,Girona,Cataluña,España,No,2,ayurveda · españa
Les mains de Sarah,🪷 Ayurveda,"12 Carrer de la Coma, 66130 Bouleternère, France",06 51 27 40 07,https://www.massageslesmainsdesarah.fr/,lesmainsdesarah@gmail.com,5,18,,"establishment, point_of_interest, spa",42.648248,2.586706,,OPERATIONAL,,ChIJRfwktP8FsBIRqAzqsCoR-NA,Pyrénées-Orientales,,Francia,No,1,ayurveda · españa
Illa Harmonia,🪷 Ayurveda,"Carrer Prat de la Creu, 93, 1r 8a, AD500 Andorra la Vella, Andorra",626 625,https://centro-illa-harmonia.my.canva.site/,illa.harmonia@gmail.com,5,19,,"establishment, gym, health, point_of_interest",42.5055706,1.5199174,,OPERATIONAL,,ChIJt-FZ92n1pRIReItO-Az7L34,Andorra,,Andorra,No,1,ayurveda · españa
masajes y terapias,🪷 Ayurveda,"Carrer Almadrava, 9, 17490 Llançà, Girona, Spain",688 26 66 14,https://www.medeaspini.com/,medeaspini@gmail.com,5,36,,"establishment, health, point_of_interest",42.3670644,3.1618672,,OPERATIONAL,,ChIJKZFGO9N9uhIR20YEbSnyRbU,Girona,Cataluña,España,No,1,ayurveda · españa
Qualia Centre Wellness,🪷 Ayurveda,"Carrer d'Alemanya, 18, 17600 Figueres, Girona, Spain",972 51 14 00,http://www.qualia.cat/,info@qualia.cat,4.5,396,,"establishment, health, point_of_interest",42.262725,2.978623,,OPERATIONAL,,ChIJz6imQTOMuhIRuVNvyUvyKts,Girona,Cataluña,España,No,1,ayurveda · españa
Origin Flow - Massatges Roses - Coach nutricional i esportiu,🪷 Ayurveda,"Carrer de Bernat Metge, 10, 17480 Roses, Girona, Spain",637 59 64 13,http://www.originflow.org/,terapies@originflow.org,5,22,,"establishment, health, point_of_interest, spa",42.266088,3.1633611,,OPERATIONAL,,ChIJ08kpNrSFuhIRxfmTHvFr0rw,Girona,Cataluña,España,No,1,ayurveda · españa
THE RITUAL- Clinica de Acupuntura y Ayurveda,🪷 Ayurveda,"Carrer Bosch, 4, 17743 Vilanant, Girona, Spain",672 36 92 81,https://www.theritual.es/,info@theritual.es,4.6,51,,"establishment, health, point_of_interest",42.2546757,2.8897773,,OPERATIONAL,,ChIJo6IaMXuYpBIRHosBI8uNxvE,Girona,Cataluña,España,No,1,ayurveda · españa
VedaNatura,🪷 Ayurveda,"Carrer de Bellmunt, nº35, 08572 Sant Pere de Torelló, Barcelona, Spain",659 94 55 17,https://vedanatura.com/,contacto@vedanatura.com,5,22,,"establishment, health, point_of_interest",42.0773819,2.2942143,,OPERATIONAL,,ChIJNZKmaDI7pRIRbLebZQxElP0,Girona,Cataluña,España,No,1,ayurveda · españa
Ashiyana Yoga Retreat Centre,🪷 Ayurveda,"La Riba, 08519 Vilanova de Sau, Barcelona, Spain",621 40 04 52,https://www.ashiyana.com/spain/,reception@ashiyana.com,5,33,,"establishment, health, point_of_interest",41.9753662,2.4127785,,OPERATIONAL,,ChIJzdQdqDUtpRIRcc13TPAYV68,Barcelona,Cataluña,España,No,1,ayurveda · españa
"Lotus, Centro de Ayurveda Yoga y Crecimiento Personal",🪷 Ayurveda,"Santa, Carrer Santa Joana de Lestonac, 25700 La Seu d'Urgell, Lleida, Spain",677 73 93 18,http://www.lotusayurvedayoga.com/,info@lotusayurvedayoga.com,4.9,19,,"establishment, gym, health, point_of_interest",42.3584552,1.4590582,,OPERATIONAL,,ChIJ7ZEs68btpRIRQmcwvhPeh6g,Lleida,Cataluña,España,No,2,ayurveda · españa
"Sonia Franco Terapia manual . Quiromasaje, Osteopatía, Masaje ayurveda, Aromaterapia.",🪷 Ayurveda,"Carrer de la Gleva, 8, Sarrià-Sant Gervasi, 08006 Barcelona, Spain",653 15 66 13,https://www.soniafrancoterapiamanual.es/es/reservar,espaivitalquiromasaje@gmail.com,4.7,44,,"establishment, health, point_of_interest",41.402887,2.146646,,OPERATIONAL,,ChIJV2ncQtijpBIROlE7YhKQK1k,Barcelona,Cataluña,España,No,2,ayurveda · españa
PaolaVidāsana Yoga & Ayurveda,🪷 Ayurveda,"Espai Esnatu, Carrer de Joan d'Àustria, 126, 2-1, Sant Martí, 08018 Barcelona, Spain",637 01 09 19,https://www.paolavidasana.com/,info@paolavidasana.com,5,17,,"establishment, gym, health, point_of_interest",41.3963243,2.1874588,,OPERATIONAL,,ChIJUXff4aijpBIRLRzqH2kdEKU,Barcelona,Cataluña,España,No,2,ayurveda · españa
Centre Prasad,🪷 Ayurveda,"C. de la Industria, 96, Ent 1a, Eixample, 08025 Barcelona, Spain",600 26 54 75,http://www.centroprasad.com/,hola@centroprasad.com,4.8,54,,"establishment, health, point_of_interest",41.4066291,2.1708331,,OPERATIONAL,,ChIJKTDss-ujpBIRIo0mHbus8CE,Barcelona,Cataluña,España,No,2,ayurveda · españa
Spiritual Veda Masajes & Tratamientos Ayurveda,🪷 Ayurveda,"Carrer dels Madrazo, 46, Sarrià-Sant Gervasi, 08006 Barcelona, Spain",640 33 57 82,https://spiritualveda.es/,hola@spiritualveda.es,5,63,,"establishment, health, point_of_interest",41.3996403,2.1480936,,OPERATIONAL,,ChIJVaN88tmjpBIRiwX2ZDJHIhY,Barcelona,Cataluña,España,No,2,ayurveda · españa
Jardí de Hara,🪷 Ayurveda,"Carrer de la Fraternitat, 25, Gràcia, 08012 Barcelona, Spain",699 07 67 62,http://www.jardindehara.com/,jardindehara@gmail.com,4.8,53,,"establishment, gym, health, point_of_interest",41.4004597,2.1605277,,OPERATIONAL,,ChIJJ1Wx8ZWipBIRPw1ISg_ziW8,Barcelona,Cataluña,España,No,2,ayurveda · españa
Naraya Ayurveda,🪷 Ayurveda,"Plaça Catalunya, 30, 08303 Mataró, Barcelona, Spain",629 77 49 79,http://www.naraya-ayurveda.com/,naraya.ayurveda@gmail.com,5,44,,"establishment, gym, health, point_of_interest",41.5383327,2.4316861,,OPERATIONAL,,ChIJ9anWBNO1pBIRUTuAyF5Wy68,Barcelona,Cataluña,España,No,2,ayurveda · españa
Laura Álvarez Nutrición Ayurveda,🪷 Ayurveda,"Carrer de Provença, Sant Martí, 08026 Barcelona, Spain",654 06 26 70,https://www.lauraalvarezgarcia.com/,hola@lauraalvarezgarcia.com,5,73,,"establishment, health, point_of_interest",41.4095253,2.1815217,,OPERATIONAL,,ChIJETggcrmjpBIRrxSu062ElJI,Barcelona,Cataluña,España,No,2,ayurveda · españa
María José Torres MASAJE AYURVEDA en el Semilla Holística,🪷 Ayurveda,"Carrer de Buscarons, 7, Sarrià-Sant Gervasi, 08022 Barcelona, Spain",616 99 42 21,https://semillaholistica.com/nuestro-espacio/espacio-ayurveda/,hola.semillaholistica@gmail.com,5,23,,"establishment, gym, health, point_of_interest",41.4068812,2.1380605,,OPERATIONAL,,ChIJ4y1JhA6YpBIRTw9lk5sp1D0,Barcelona,Cataluña,España,No,2,ayurveda · españa
Siente Ayurveda,🪷 Ayurveda,"Carrer d'Aribau, 124, Eixample, 08036 Barcelona, Spain",616 12 77 16,http://www.sienteayurveda.net/,sienteayurveda14@gmail.com,5,19,,"establishment, health, point_of_interest",41.3911738,2.1558937,,OPERATIONAL,,ChIJrzWiLICjpBIRjD3YFQb_Dqs,Barcelona,Cataluña,España,No,2,ayurveda · españa
Ayurveda Barcelona,🪷 Ayurveda,"Carrer de Ramis, 2, Local 3, Gràcia, 08012 Barcelona, Spain",934 94 29 28,https://www.ayurvedabarcelona.net/,contact@ayurvedabarcelona.net,4.8,181,,"establishment, health, point_of_interest",41.4026902,2.1615845,,OPERATIONAL,,ChIJV0HcMmmYpBIRogBcAGaN26o,Barcelona,Cataluña,España,No,2,ayurveda · españa
"MARMA ""Centro de terapias holísticas""",🪷 Ayurveda,"Carrer Aureli Capmany, 2, Local 1, 08195 Sant Cugat del Vallès, Barcelona, Spain",620 97 47 91,http://www.marmaterapias.es/,info@marmaterapias.es,5,37,,"doctor, establishment, gym, health, point_of_interest",41.4682651,2.0656786,,OPERATIONAL,,ChIJrd7kUnGXpBIRpZDof-dQO3M,Barcelona,Cataluña,España,No,2,ayurveda · españa
Centre Sat Nam,🪷 Ayurveda,"Carrer Dr. Fleming, 23, 08292 Esparreguera, Barcelona, Spain",678 62 48 18,https://yogayterapiasatnam.es/,yogayterapiasatnam@gmail.com,5,47,,"establishment, gym, health, point_of_interest",41.533742,1.8716275,,OPERATIONAL,,ChIJO9hT2LKLpBIRc0L6vht3edI,Tarragona,Cataluña,España,No,2,ayurveda · españa
SADHANA Yoga Shri Vivek & Massatge Ayurveda,🪷 Ayurveda,"Av. de la Pau, 66, 08470 Sant Celoni, Barcelona, Spain",699 17 45 53,http://www.sadhana.cat/,info@sadhana.cat,5,29,,"establishment, gym, health, point_of_interest",41.6848793,2.4816256,,OPERATIONAL,,ChIJjYtM8B8zuxIRxI26MWyO_f0,Barcelona,Cataluña,España,No,2,ayurveda · españa
Akasha - Casa de Sanación y Ayurveda Savitri OM,🪷 Ayurveda,"Masia Can Busquet https://goo.gl/maps/mkSYGfS89v3H6Azf7, 08450 Llinars del Vallès, Barcelona, Spain",663 83 86 18,https://www.ayurvedaakasha.com/?utm_source=google&utm_medium=wix_google_business_profile&utm_campaign=9738740032407114066,ayurvedaakasha@gmail.com,5,31,,"establishment, health, point_of_interest, school",41.6050204,2.3909747,,OPERATIONAL,,ChIJ6WmVWL3LpBIRMNL6MnUwOKA,Barcelona,Cataluña,España,No,2,ayurveda · españa
Montserrat Ordóñez. Massatge Ayurvèdic i Teràpia Marma,🪷 Ayurveda,"Av. de Barcelona, 182, Local A, 08700 Igualada, Barcelona, Spain",685 19 27 92,https://montse-ayurveda.webador.es/,soporte@webador.es,5,21,,"establishment, health, point_of_interest",41.583104,1.628887,,OPERATIONAL,,ChIJXZ08OVJppBIR01AeNbonXsI,Tarragona,Cataluña,España,No,2,ayurveda · españa
Ànima Wellness,🪷 Ayurveda,"Carretera de Igualada C37Z, km 90,5, 08241, 08241 Manresa, Barcelona, Spain",639 44 85 59,https://teresadomingobatlle.com/anima-wellness,anima@ollerdelmas.com,5,74,,"establishment, health, point_of_interest",41.7043788,1.7977061,,OPERATIONAL,,ChIJEXTU6ApZpBIR5OkzdZ9jLDs,Tarragona,Cataluña,España,No,2,ayurveda · españa
Ishvara Yoga y Terapias,🪷 Ayurveda,"Carrer de Casanova, 27, 2º 2ª, Eixample, 08011 Barcelona, Spain",607 25 05 40,http://www.ishvarayoga.es/,info@ishvarayoga.es,4.9,18,,"establishment, gym, health, point_of_interest",41.3831903,2.1614603,,OPERATIONAL,,ChIJl6uXmfOipBIRS5MlVfGEiro,Barcelona,Cataluña,España,No,1,ayurveda · españa
Janeth Solá Ayurveda y Acupuntura,🧖‍♀️ Spa,"Carrer de València, 85, Entresuelo 1ª, Eixample, 08029 Barcelona, Spain",655 56 01 62,https://janethsola.com/,hola@janethsola.com,4.9,79,,"establishment, health, point_of_interest, spa",41.3852915,2.1530629,,OPERATIONAL,,ChIJmbPJnIiYpBIR44FR0QFKpbc,Barcelona,Cataluña,España,No,1,ayurveda · españa
Natalia Paola Holística,🪷 Ayurveda,"Camí Ral, 16, 08859 Begues, Barcelona, Spain",627 78 64 29,https://nataliapaolaholistica.blogspot.com/2022/03/indice.html,nataliapaolaholistica@gmail.com,5,72,,"establishment, gym, health, point_of_interest",41.3317454,1.9191241,,OPERATIONAL,,ChIJhWyxZrwSza0Rc3y1qB5SJ_o,Tarragona,Cataluña,España,No,1,ayurveda · españa
Espai Holístic Anima,🪷 Ayurveda,"Carrer Jesús, 51, 43820 Calafell, Tarragona, Spain",647 88 25 36,https://www.instagram.com/espai_holistic_anima/,info@ubk-centre.com,5,20,,"establishment, health, point_of_interest",41.1990847,1.5701956,,OPERATIONAL,,ChIJvXQ1AwCLoxIR3hZAz-0g3Jo,Tarragona,Cataluña,España,No,1,ayurveda · españa
Ayurveda Experience Connie,🪷 Ayurveda,"Av. de la Collada, 22, 08800 Vilanova i la Geltrú, Barcelona, Spain",655 27 96 89,http://www.conniemarin.com/,info@conniemarin.com,5,47,,"establishment, health, point_of_interest",41.2234498,1.7057073,,OPERATIONAL,,ChIJF3EqFNaHoxIRYrllxbmiHkY,Tarragona,Cataluña,España,No,1,ayurveda · españa
Ayurveda Tradicional,🪷 Ayurveda,"Plaça de la Fàbrica Nova, 18, L16, 08800 Vilanova i la Geltrú, Barcelona, Spain",686 80 21 29,http://www.pilarcontreras.cat/,pilar@pilarcontreras.cat,5,18,,"establishment, health, point_of_interest",41.22584,1.71648,,OPERATIONAL,,ChIJl4rKfEmHoxIRIgP3RfkuSCs,Tarragona,Cataluña,España,No,1,ayurveda · españa
Ayurveda Rural,🪷 Ayurveda,"Diseminado de Sansuies, 43718, Tarragona, Spain",670 85 28 33,https://www.ayurvedarural.com/,hola@ayurvedarural.com,5,35,,"establishment, health, point_of_interest",41.3055687,1.4853436,,OPERATIONAL,,ChIJk9Y4wVcKpBIR2ciQ4XV1Z6g,Tarragona,Cataluña,España,No,1,ayurveda · españa
Relaxa't Reus,🪷 Ayurveda,"Av. de Prat de la Riba, 5, 1º, 43201 Reus, Tarragona, Spain",659 18 14 89,http://www.relaxatreus.es/,info@relaxatreus.es,4.9,832,,"beauty_salon, establishment, gym, health, point_of_interest, spa",41.1576035,1.1047824,,OPERATIONAL,,ChIJw6dJN2pRoRIRSRi3SumqJOw,Tarragona,Cataluña,España,No,1,ayurveda · españa
Massatges Salou Massagium,🧖‍♀️ Spa,"Carrer de Madrid, 17, 43840 Salou, Tarragona, Spain",644 56 70 57,http://www.massagium.es/,jlopezsanchez19@gmail.com,4.8,471,,"establishment, point_of_interest, spa",41.0770201,1.1391109,,OPERATIONAL,,ChIJTRJWqftZoRIR_uT9ePXMPI0,Tarragona,Cataluña,España,No,1,ayurveda · españa
YO. Salud Estética,🪷 Ayurveda,"Bermingham Kalea, 8, bajo, 20002 Donostia / San Sebastián, Gipuzkoa, Spain",943 29 08 89,https://www.yosaludestetica.com/,info@yosaludestetica.com,4.9,248,,"establishment, health, point_of_interest",43.324803,-1.9730875,,OPERATIONAL,,ChIJ0ZbinEOlUQ0Rdv5DI8y-KJQ,Gipuzkoa,País Vasco,España,No,1,ayurveda · españa
Masajemocional - Jonkar Gartzia,🪷 Ayurveda,"C. de Iparraguirre, 16, 1 Planta ,Of 3, 20001 Donostia / San Sebastián, Guipúzcoa, Spain",616 41 20 58,https://www.masajemocional.es/,masajemocional@gmail.com,4.9,312,,"establishment, health, point_of_interest",43.3229642,-1.9756901,,OPERATIONAL,,ChIJBZWrv0SlUQ0RDVgLbLMxVgw,Gipuzkoa,País Vasco,España,No,1,ayurveda · españa
Centro Ayurveda Devasahi,🪷 Ayurveda,"Berezikoetxe Kalea, 1, 48460 Kurtzea, Bizkaia, Spain",944 56 81 88,https://ayurvedadevasahi.com/,info@ayurvedadevasahi.com,5,30,,"establishment, health, point_of_interest",43.2281603,-2.8461706,,OPERATIONAL,,ChIJbWU3EUVJTg0RXFapmMBWgK8,Gipuzkoa,País Vasco,España,No,1,ayurveda · españa
Art of Healing,🪷 Ayurveda,"C. Juan de la Cosa, 11, 39004 Santander, Cantabria, Spain",673 07 86 25,https://www.artofhealing.es/,info@artofhealing.es,5,32,,"establishment, health, point_of_interest",43.4636512,-3.794922,,OPERATIONAL,,ChIJAwhXXyFJSQ0RUEDkDVB-IdY,Bizkaia,País Vasco,España,No,1,ayurveda · españa
Didgeridoo Ritual,🪷 Ayurveda,"C. Playa de Usil, 439, 39310 Mogro, Cantabria, Spain",601 21 28 74,https://didgeridooritual.es/,info@didgeridooritual.es,5,51,,"establishment, health, point_of_interest",43.4373472,-3.9694686,,OPERATIONAL,,ChIJGxuC6n9HSQ0RP9bgaCof_og,Cantabria,Cantabria,España,No,1,ayurveda · españa
Sandaili Plantas Medicinales-Terapias Naturales,🪷 Ayurveda,"Hedegile Kalea, 143, 01001 Vitoria-Gasteiz, Araba, Spain",945 33 99 91,http://www.sandailivitoria.com/,sandailivitoria@gmail.com,4.9,34,,"establishment, health, point_of_interest",42.8512439,-2.6731616,,OPERATIONAL,,ChIJhUFh8WnCTw0R8G2-Qnm9KLI,Álava,País Vasco,España,No,1,ayurveda · españa
Ura Masajes y Técnicas Holísticas,🪷 Ayurveda,"Fundadora de las Siervas de Jesus Kalea, 27, 01001 Vitoria-Gasteiz, Araba, Spain",637 76 07 43,https://masajeholisticoura.com/?utm_campaign=gmb,urasalinas@yahoo.es,5,40,,"establishment, health, point_of_interest",42.8495817,-2.6751508,,OPERATIONAL,,ChIJ6XmuUirDTw0RS9dpf2qabHk,Álava,País Vasco,España,No,1,ayurveda · españa
Beatriz Alija - Terapia holística,🧖‍♀️ Spa,"C. Renueva, 31, 24002 León, Spain",606 14 51 53,http://www.beatrizalija.es/,reikileon7@gmail.com,5,133,,"establishment, health, point_of_interest, spa",42.6018067,-5.5746586,,OPERATIONAL,,ChIJt563WtVRNw0R9nmlvdiAFs8,León,Castilla y León,España,No,1,ayurveda · españa
Escuela de Yoga y Ayurveda. La Voluntad del Alma,🪷 Ayurveda,"C. Soria, 16, Entreplanta, 09004 Burgos, Spain",659 16 80 08,http://www.lavoluntaddelalma.com/,hola@lavoluntaddelalma.com,5,23,,"establishment, gym, health, point_of_interest",42.3484028,-3.6912337,,OPERATIONAL,,ChIJTc-7Zg0YoA8Rl6_QS2CMUGk,Burgos,Castilla y León,España,No,1,ayurveda · españa
TrueAtalaya,🪷 Ayurveda,"Av de Burgos, 62, 09320 Burgos, Spain",615 07 84 60,http://www.trueatalaya.es/,info@trueatalaya.es,4.9,23,,"establishment, health, point_of_interest",42.1764172,-3.7129581,,OPERATIONAL,,ChIJKV5pZb79RQ0Rm_3bVemPXOA,Burgos,Castilla y León,España,No,1,ayurveda · españa
"""Unmani Yoga""",🪷 Ayurveda,"Av. de las Tres Cruces, 17, 49008 Zamora, Spain",685 32 40 14,http://www.yogaenzamora.com/,info@yogaenzamora.com,5,18,,"establishment, gym, health, point_of_interest, spa",41.5105129,-5.7416359,,OPERATIONAL,,ChIJ81xd7DoeOQ0RAaTbI4DrmmA,Zamora,Castilla y León,España,No,1,ayurveda · españa
Luxor Madrid,🧖‍♀️ Spa,"C. de Preciados, 38, 1º piso, Centro, 28013 Madrid, Spain",692 68 76 04,https://luxormadrid.com/,info@luxormadrid.com,4.8,122,,"establishment, point_of_interest, spa",40.4198789,-3.7069185,,OPERATIONAL,,ChIJF9VTcL4oQg0Rg2ChEmC8E9I,Madrid,Comunidad de Madrid,España,No,1,ayurveda · españa
Yoga y Terapias Holísticas. Bodhicitta,🪷 Ayurveda,"C. Martín López Zubero, 3, 28690 Brunete, Madrid, Spain",600 31 92 87,https://bodhicitta.es/,info@luzcitta.es,5,43,,"establishment, gym, health, point_of_interest",40.4094244,-3.9968329,,OPERATIONAL,,ChIJCfCMozKZQQ0RDh3e_77u9_Y,Madrid,Comunidad de Madrid,España,No,1,ayurveda · españa
Salud Natural Leganés S.L.U,🪷 Ayurveda,"Av. de Fuenlabrada, 79, 28912 Leganés, Madrid, Spain",916 89 49 78,http://www.saludnaturalleganes.com/,info@saludnaturalleganes.com,4.9,122,,"establishment, health, point_of_interest",40.326915,-3.7640195,,OPERATIONAL,,ChIJHXPahh-KQQ0REP5DIHbwP8k,Madrid,Comunidad de Madrid,España,No,1,ayurveda · españa
Tierra Indigo Eleva Tu Energia,🧖‍♀️ Spa,"C. de Lope de Rueda, 4, SOTANO DERECHA, Salamanca, 28009 Madrid, Spain",633 22 84 74,https://www.tierraindigo.com/,centrotierraindigo@gmail.com,4.8,378,,"establishment, health, point_of_interest, spa",40.42361,-3.67734,,OPERATIONAL,,ChIJs80jX8cpQg0Rrca0ktVQE2A,Madrid,Comunidad de Madrid,España,No,1,ayurveda · españa
Centro Amoratí,🪷 Ayurveda,"C. de Carmen Garrido Pérez, s/n, Cdad. Lineal, 28017 Madrid, Spain",681 32 99 48,https://www.esamorati.com/,espacioamorati@gmail.com,5,34,,"establishment, health, point_of_interest",40.4294959,-3.6584512,,OPERATIONAL,,ChIJLdP6sfYvQg0RMOqSCpfXcFc,Madrid,Comunidad de Madrid,España,No,1,ayurveda · españa
El Alma del Yoga,🪷 Ayurveda,"C. del Monte Perdido, 5, Portal 2 - Bajo E, 28909 Getafe, Madrid, Spain",696 42 01 76,https://www.instagram.com/elalmadelyoga,espacioshambhala@gmail.com,5,65,,"establishment, gym, health, point_of_interest",40.3255087,-3.6611734,,OPERATIONAL,,ChIJ92JluYQjQg0ReYIq1ZNoqaQ,Madrid,Comunidad de Madrid,España,No,1,ayurveda · españa
Bárbara Yogaterapia,🪷 Ayurveda,"Camino de Chaves, 28694 Chapinería, Madrid, Spain",620 80 90 78,http://www.barbarayogaterapia.com/,hola@barbarayogaterapia.com,5,23,,"establishment, gym, health, point_of_interest",40.3975684,-4.2023255,,OPERATIONAL,,ChIJ-_cDysalQQ0RWCGu-9BravU,Madrid,Comunidad de Madrid,España,No,1,ayurveda · españa
Ángela Valle Centro de Masajes y Técnicas Naturales,🪷 Ayurveda,"C. Toledo, 3, Oficina 1, 37005 Salamanca, Spain",619 25 41 96,https://www.angelavallemasajes.es/,anvado3@hotmail.com,5,76,,"establishment, health, point_of_interest",40.9719664,-5.6599308,,OPERATIONAL,,ChIJ42K-Z7YnPw0RRpKo2qdwPpA,Cáceres,Extremadura,España,No,1,ayurveda · españa
Adriana Baiz Terapias de bienestar,🪷 Ayurveda,"C. Valdeorilla, 28814 Daganzo de Arriba, Madrid, Spain",663 76 00 88,https://www.facebook.com/adrianaterapiasbienestar,redessociales@informador.com.mx,5,17,,"establishment, health, point_of_interest",40.5484794,-3.46011,,OPERATIONAL,,ChIJmZT8TQA1Qg0Rnm1AoKMxFHs,Madrid,Comunidad de Madrid,España,No,1,ayurveda · españa
YogaConecta,🪷 Ayurveda,"C. Nebrija, 7, 28801 Alcalá de Henares, Madrid, Spain",640 54 93 30,https://www.yogaconecta.com/,info@yogaconecta.com,5,64,,"establishment, gym, health, point_of_interest",40.4843351,-3.3639562,,OPERATIONAL,,ChIJK7wjYoJJQg0R7F3ft4bK8iA,Madrid,Comunidad de Madrid,España,No,1,ayurveda · españa
Burbuja Natural,🪷 Ayurveda,"C. Mazarrón, 7, 28231 Las Rozas de Madrid, Madrid, Spain",660 63 72 48,http://burbujanatural.com/,info@burbujanatural.com,5,43,,"establishment, health, point_of_interest",40.4908204,-3.8885461,,OPERATIONAL,,ChIJUzPq_16DQQ0RDd8_7covMok,Madrid,Comunidad de Madrid,España,No,2,ayurveda · españa
Gózate Yoga y Bienestar,🪷 Ayurveda,"C. de la Amnistía, 2, Centro, 28013 Madrid, Spain",650 72 59 35,https://www.gozateyoga.com/,info@gozateyoga.com,4.8,20,,"establishment, gym, health, point_of_interest",40.417257,-3.7101787,,OPERATIONAL,,ChIJrU7dVHEpQg0RAmN8ZFRKrYc,Madrid,Comunidad de Madrid,España,No,1,ayurveda · españa
Seven Seas,🪷 Ayurveda,"C/ de Sta Hortensia, 9, Chamartín, 28002 Madrid, Spain",610 59 48 39,https://sevenseas.yoga/,info@sevenseas.yoga,5,35,,"establishment, gym, health, point_of_interest",40.4453177,-3.669619,,OPERATIONAL,,ChIJhSQG8rUpQg0RKngtNLWCJS0,Madrid,Comunidad de Madrid,España,No,2,ayurveda · españa
Centro de Yoga y Ayurveda. Do Ananda Yoga,🪷 Ayurveda,"C. Jesusa Lara, 20, 28250 Torrelodones, Madrid, Spain",607 42 01 10,http://doanandayoga.com/,info@doanandayoga.com,5,28,,"establishment, gym, health, point_of_interest",40.5791925,-3.9545084,,OPERATIONAL,,ChIJAQBksjF2QQ0R3Z0ixww7DOs,Madrid,Comunidad de Madrid,España,No,2,ayurveda · españa
RASAYANA LONGEVIDAD,🪷 Ayurveda,"Av. de Pablo VI, 9, local 1b posterior, 28224 Pozuelo de Alarcón, Madrid, Spain",674 90 60 19,https://www.rasayanalongevidad.es/,info@rasayanalongevidad.es,5,17,,"establishment, health, point_of_interest",40.4312042,-3.8107619,,OPERATIONAL,,ChIJs7r5-LWHQQ0RIgJm1DD7M9M,Madrid,Comunidad de Madrid,España,No,2,ayurveda · españa
Apasho yoga,🪷 Ayurveda,"Poeta Joan Maragall, 56, 5E Despacho 2, Tetuán, 28020 Madrid, Spain",638 08 24 61,http://www.apashoyoga.com/,info@apashoyoga.com,5,164,,"establishment, point_of_interest",40.4626276,-3.6914529,,OPERATIONAL,,ChIJuQaqKmUoQg0RRlBWWzuYDc4,Madrid,Comunidad de Madrid,España,No,2,ayurveda · españa
Amantes del Yoga,🪷 Ayurveda,"C. de las Perdices, 2, 28607 El Álamo, Madrid, Spain",659 68 74 12,https://amantesdelyoga.com/contacto/,info@amantesdelyoga.com,5,25,,"establishment, gym, health, point_of_interest",40.2364956,-3.9941214,,OPERATIONAL,,ChIJAQCklVPrQQ0R29-tosKH-7g,Madrid,Comunidad de Madrid,España,No,1,ayurveda · españa
Escuela Superior de Ayurveda,🪷 Ayurveda,"Calle de Núñez de Balboa, 119, 1º dcha, Salamanca, 28006 Madrid, Spain",621 20 30 21,http://www.esayurveda.com/,info@esayurveda.com,5,43,,"establishment, health, point_of_interest",40.4369252,-3.6819386,,OPERATIONAL,,ChIJJ5wxudopQg0RtWKXOMfoYBQ,Madrid,Comunidad de Madrid,España,No,2,ayurveda · españa
Aiyayurveda International Association of yoga and ayurveda,🪷 Ayurveda,"C. de Campomanes, 8, Centro, 28013 Madrid, Spain",637 41 84 34,https://www.aiyayurveda.com/,info@aiyayurveda.com,5,97,,"establishment, gym, health, point_of_interest",40.4191308,-3.7090739,,OPERATIONAL,,ChIJYxLeGnkoQg0R6q6Dh_hBaeU,Madrid,Comunidad de Madrid,España,No,2,ayurveda · españa
YOGA EN BOADILLA I YOGA ASHRAM,🪷 Ayurveda,"Av. Siglo XXI, 13, local 18, 28660 Boadilla del Monte, Madrid, Spain",630 43 26 04,http://yogaenboadilla.es/,info@yogaenboadilla.es,5,89,,"establishment, gym, health, point_of_interest",40.4068109,-3.9008762,,OPERATIONAL,,ChIJdwW3JaaFQQ0RO7gobWX19oo,Madrid,Comunidad de Madrid,España,No,1,ayurveda · españa
Nurayani Therapy,🪷 Ayurveda,"Neiguan, C. Antonio Muñoz Manzaneque, 22, 28250 Torrelodones, Madrid, Spain",690 63 21 53,https://nurayani.com/,noura.a.blanco@gmail.com,5,43,,"establishment, health, point_of_interest",40.5816904,-3.9515093,,OPERATIONAL,,ChIJqcxZh6p3QQ0RfVd3ihBMCZk,Madrid,Comunidad de Madrid,España,No,2,ayurveda · españa
SHAMATHA CENTRO HOLÍSTICO,🪷 Ayurveda,"C. de Abtao, 7, Bajo / entreplanta, Retiro, 28007 Madrid, Spain",630 14 59 62,http://shamathacentroholistico.es/,chi-71@hotmail.com,4.9,205,,"establishment, gym, health, point_of_interest",40.4038635,-3.6766329,,OPERATIONAL,,ChIJ6Vp_fxAmQg0RSHDGaCQIGPs,Madrid,Comunidad de Madrid,España,No,2,ayurveda · españa
Escuela Española de Yoga Terapéutico y Ayurveda,🪷 Ayurveda,"C. de Bravo Murillo, 243, Tetuán, 28020 Madrid, Spain",607 71 48 71,https://escueladeyogaterapeutico.com/,hola@escueladeyogaterapeutico.com,5,37,,"establishment, gym, health, point_of_interest",40.4587072,-3.700849,,OPERATIONAL,,ChIJweERdY2EQQ0R1-_6228MoLE,Madrid,Comunidad de Madrid,España,No,2,ayurveda · españa
de la Mano del Yoga Ayurveda,🪷 Ayurveda,"C. de los Cercados, 35, 28410 Manzanares el Real, Madrid, Spain",686 92 16 75,http://ruthdelamano.com/,delamanodelyoga@gmail.com,5,26,,"establishment, gym, health, point_of_interest",40.7315133,-3.8578544,,OPERATIONAL,,ChIJazua1kF7QQ0R18SN-yL0An0,Madrid,Comunidad de Madrid,España,No,2,ayurveda · españa
Matrika Yoga School & Ayurveda (Método Iyengar),🪷 Ayurveda,"Pl. de la Constitución, 7, 28694 Chapinería, Madrid, Spain",622 48 04 21,https://matrikayoga.com/,info@matrikayoga.com,4.7,60,,"establishment, gym, health, point_of_interest",40.3791602,-4.2092908,,OPERATIONAL,,ChIJg64yu2K7QQ0RFMUiUAkRZWk,Ávila,Castilla y León,España,No,1,ayurveda · españa
Centro Mushin,🪷 Ayurveda,"C. Isabel II, 43, 28982 Parla, Madrid, Spain",910 14 50 52,http://www.centromushin.es/,info@centromushin.es,4.8,19,,"establishment, gym, health, point_of_interest, spa",40.2299769,-3.7653067,,OPERATIONAL,,ChIJdRyWKEP1QQ0RSWFNzxojKDo,Madrid,Comunidad de Madrid,España,No,1,ayurveda · españa
Matrika Yoga School & Ayurveda (Método Iyengar),🪷 Ayurveda,"Calle Sierra de la Estrella, 10, 28923 Alcorcón, Madrid, Spain",622 48 04 21,https://matrikayoga.com/,info@matrikayoga.com,4.8,57,,"establishment, gym, health, point_of_interest",40.3475675,-3.8204693,,OPERATIONAL,,ChIJx6wnK1GJQQ0Rd0jIQsD8nQM,Madrid,Comunidad de Madrid,España,No,1,ayurveda · españa
Living Yoga Studio,🪷 Ayurveda,"C. de Escalona, 4, 45004 Toledo, Spain",620 69 62 17,http://www.vivayoga.es/,contacto@ejemplo.com,4.7,42,,"establishment, gym, health, point_of_interest, spa, store",39.8647936,-4.0268358,,OPERATIONAL,,ChIJDZfolwELag0Rfzo2N3xdNXU,Cuenca,Castilla-La Mancha,España,No,1,ayurveda · españa
Alba Flores Saranam-Refugio del Alma,🪷 Ayurveda,"Cam. Pozuela, 341, 45004 Toledo, Spain",661 14 04 23,http://www.saranam.es/,hola@saranam.es,5,57,,"establishment, gym, health, point_of_interest",39.8365455,-4.0270611,,OPERATIONAL,,ChIJX1GuxsULag0RloOkvt-b4Ig,Toledo,Castilla-La Mancha,España,No,1,ayurveda · españa
Centro Yogasadhana,🪷 Ayurveda,"C. Infantes, 13, 13002 Ciudad Real, Spain",600 58 23 81,https://www.yogasadhana.es/,sadhanapada@gmail.com,4.8,77,,"establishment, gym, health, point_of_interest",38.98827,-3.93261,,OPERATIONAL,,ChIJGU9fa5TDaw0RIICsuApqlw4,Albacete,Castilla-La Mancha,España,No,1,ayurveda · españa
LUZ CHURRUCA,🪷 Ayurveda,"C/ Colón de Larreátegui K., 26, 5D, Abando, 48009 Bilbao, Vizcaya, Spain",676 10 68 04,http://www.luzchurruca.com/,info@luzchurruca.com,5,18,,"establishment, health, point_of_interest, school",43.2636468,-2.9321228,,OPERATIONAL,,ChIJF3baCC5aTg0RGkp77E7IDwA,Bizkaia,País Vasco,España,No,1,ayurveda · españa
Shantala Ayurveda Bilbao,🪷 Ayurveda,"Venezuela Plaza, 1, 2 °, Abando, 48001 Bilbao, Bizkaia, Spain",616 39 71 84,http://www.shantalayurveda.com/,info@shantalayurveda.com,4.9,16,,"establishment, health, point_of_interest",43.2625719,-2.9247352,,OPERATIONAL,,ChIJW_95es9PTg0Rkg0RjFs0SUo,Bizkaia,País Vasco,España,No,1,ayurveda · españa
Escuela de Yoga Ananda,🪷 Ayurveda,"Av. Castilla, 4, entresuelo 2, 39200 Reinosa, Cantabria, Spain",644 25 35 17,http://www.anandaescuelayoga.com/,anandaescuelayoga@gmail.com,5,28,,"establishment, gym, health, point_of_interest",42.9962354,-4.1404675,,OPERATIONAL,,ChIJl1LadrfnSA0RJlfeGleY2aA,Zamora,Castilla y León,España,No,1,ayurveda · españa
Yoga Lanzarote and Ayurvedic Massage,🪷 Ayurveda,"C. Rociega, 21, 35558 Caleta de Famara, Las Palmas, Spain",633 03 95 44,http://www.yogalanzarote.es/,info@yogalanzarote.es,5,70,,"establishment, gym, health, point_of_interest",29.1186934,-13.5657468,,OPERATIONAL,,ChIJo14_jL8fRgwRgvQCfijhFGo,Las Palmas,Islas Canarias,España,No,2,ayurveda · españa
Namaste Yoga,🪷 Ayurveda,"Pergolas III Calle d Villas, 12A, 35660 Corralejo, Las Palmas, Spain",678 65 57 24,http://www.namasteyogaretreat.com/,namasteyogaftv@gmail.com,5,94,,"establishment, gym, health, point_of_interest",28.7273147,-13.8609608,,OPERATIONAL,,ChIJfesuy-Y0RgwR1iEo35Otfi4,Las Palmas,Islas Canarias,España,No,2,ayurveda · españa
Oryzae Nutrición & Naturopatía,🪷 Ayurveda,"C. Mederos, 38290 Tegueste, Santa Cruz de Tenerife, Spain",675 18 38 58,https://oryzae.es/?utm_source=google&utm_medium=organic&utm_campaign=gmb,mahy@oryzae.es,5,115,,"establishment, health, point_of_interest",28.5211299,-16.3482638,,OPERATIONAL,,ChIJk5skd-C5pQgRKxS-DmieZ_k,Tenerife,Islas Canarias,España,No,1,ayurveda · españa
La Palma Parami,🧖‍♀️ Spa,"Cam. la Callejeta, 23, 38780 Tijarafe, Santa Cruz de Tenerife, Spain",606 44 01 55,http://lapalma-parami.com/,parami@la-palma.eu,5,73,,"establishment, point_of_interest, spa",28.674896,-17.949026,,OPERATIONAL,,ChIJ8aM4WXDzawwR9qVhFpI9RUI,Santa Cruz de Tenerife,Islas Canarias,España,No,1,ayurveda · españa
relax & nature fuerteventura,🧖‍♀️ Spa,"Av. del Saladar, 17, 35625 Morro Jable, Las Palmas, Spain",616 82 66 93,http://www.relax-nature.com/,info@relax-nature.com,4.4,15,,"establishment, point_of_interest, spa",28.0491292,-14.333726,,OPERATIONAL,,ChIJ5SG18wF5RwwRABIfq1_i_iw,Las Palmas,Islas Canarias,España,No,1,ayurveda · españa
Pure Yoga Canarias,🪷 Ayurveda,"C. Concejal Manuel Rodríguez Costas, 3, 35009 Las Palmas de Gran Canaria, Las Palmas, Spain",620 38 72 07,https://pureyogacanarias.com/,info@pureyogacanarias.com,5,250,,"establishment, gym, health, point_of_interest, school",28.1508916,-15.4313877,,OPERATIONAL,,ChIJJUU99DeVQAwR1Pi94osk85c,Las Palmas,Islas Canarias,España,No,1,ayurveda · españa
Massage and holistic therapies at Isvara Gran Canaria,🪷 Ayurveda,"Finca de café los Castaños, Cam. de Los Romeros, 35489 Agaete, Las Palmas, Spain",630 28 58 07,https://sharmilachander.com/,hola@sharmilachander.com,4.8,40,,"establishment, health, point_of_interest, school",28.0810628,-15.6730958,,OPERATIONAL,,ChIJvRmSAfuNQAwRWIk3u0Fka34,Las Palmas,Islas Canarias,España,No,1,ayurveda · españa
Yoga Room,🪷 Ayurveda,"C. los Álamos, 14, 35338 Teror, Las Palmas, Spain",650 02 42 38,https://www.instagram.com/yogaroomlaspalmas?igsh=MXUzb2E4OGNhcXIzag%3D%3D&utm_source=qr,yogaroomlaspalmas@gmail.com,4.9,18,,"establishment, gym, health, point_of_interest",28.0789471,-15.5110006,,OPERATIONAL,,ChIJ2yc49UaTQAwRvBkPTnF4nhQ,Las Palmas,Islas Canarias,España,No,1,ayurveda · españa
Flow with Faye… Yoga & Wellbeing,🪷 Ayurveda,"C. Imeldo Serís, 73, 38003 Santa Cruz de Tenerife, Spain",600 24 23 16,https://flowwithfaye.com/,info@flowwithfaye.com,5,30,,"establishment, gym, health, point_of_interest, store",28.4670989,-16.2535692,,OPERATIONAL,,ChIJKUmJA4p5xAIRJS63XUy1AY8,Santa Cruz de Tenerife,Islas Canarias,España,No,1,ayurveda · españa
Surya Yoga&Masaje Tenerife,🪷 Ayurveda,"Centro Comercial Nuestra señora de África, Local 10A. Planta 0, 38001 Santa Cruz de Tenerife, Spain",685 75 05 70,https://masajetenerife.com/,filler@godaddy.com,5,96,,"establishment, point_of_interest",28.4622761,-16.2516203,,OPERATIONAL,,ChIJB3XN4SDLQQwRTe2pzSse5U8,Santa Cruz de Tenerife,Islas Canarias,España,No,1,ayurveda · españa
Shanti Masajes Tenerife,🪷 Ayurveda,"Av. de San Sebastián, 80, 38005 Santa Cruz de Tenerife, Spain",642 40 38 86,https://shanticentrodebienestar.com/,usuario@dominio.com,5,91,,"establishment, health, point_of_interest",28.4638362,-16.2544163,,OPERATIONAL,,ChIJNdLdU9fLQQwRDBLLKvEzaYM,Santa Cruz de Tenerife,Islas Canarias,España,No,1,ayurveda · españa
SPA Sensations Iberostar Heritage Grand Mencey,🧖‍♀️ Spa,"Calle Dr. Jose Naveiras, 38, 38004 Santa Cruz de Tenerife, Spain",922 60 99 24,https://www.iberostar.com/es/hoteles/tenerife/iberostar-grand-mencey/?utm_campaign=SEOLOC,hotel.mencey@iberostar.com,4.5,132,,"establishment, point_of_interest, spa",28.4744554,-16.2533339,,OPERATIONAL,,ChIJ_QN5A5TNQQwRa6oe5cRic1s,Santa Cruz de Tenerife,Islas Canarias,España,No,2,ayurveda · españa
Runachay Center,🪷 Ayurveda,"C. Arure, 2, 38611 San Isidro, Santa Cruz de Tenerife, Spain",608 47 85 33,http://runachaycenter.com/,info@runachaycenter.com,4.7,31,,"establishment, food, gym, health, point_of_interest, store",28.07826,-16.5559499,,OPERATIONAL,,ChIJrZJEzjWeagwRXOd7rtZdzpE,Santa Cruz de Tenerife,Islas Canarias,España,No,1,ayurveda · españa
Spa Centro de Vinoterapia BeautyFORYOU - Tenerife,🧖‍♀️ Spa,"C. Velázquez, 2, A, 38007 Santa Cruz de Tenerife, Spain",611 50 15 59,https://massage.ivof.com/spa-centro-de-vinoterapia-beautyforyou-tenerife/,info@ivof.com,5,45,,"establishment, point_of_interest, spa",28.4658206,-16.2630483,,OPERATIONAL,,ChIJ0aAOKJXNQQwR_cZGTCBcgos,Santa Cruz de Tenerife,Islas Canarias,España,No,1,ayurveda · españa
Casita de Ayurveda Tenerife,🧖‍♀️ Spa,"Ctra. La Guancha, 62, 38434 La Guancha, Santa Cruz de Tenerife, Spain",0176 23586940,http://www.casita-de-ayurveda-teneriffa.com/,info@casita-ayurveda.com,4.8,64,,"establishment, point_of_interest, spa",28.3745099,-16.6742088,,OPERATIONAL,,ChIJ88B-CGN9agwRmJZdr9_fLho,Santa Cruz de Tenerife,Islas Canarias,España,No,1,ayurveda · españa
SpaHome Wellness Centre,🧖‍♀️ Spa,"C. el Jable, 41, 38678 Callao Salvaje, Santa Cruz de Tenerife, Spain",606 84 93 37,https://instagram.com/spahomewellness?utm_medium=copy_link,glowingrituals@gmail.com,5,24,,"establishment, health, point_of_interest, spa",28.1301572,-16.7806802,,OPERATIONAL,,ChIJtyXTGOuRagwRSdv_IM0dL2s,Santa Cruz de Tenerife,Islas Canarias,España,No,1,ayurveda · españa
Tantric Massage - Tantra Tenerife - Masaje tantrico,🪷 Ayurveda,"Av. Juan Carlos I, 33, 38650 Arona, Santa Cruz de Tenerife, Spain",666 08 17 10,http://www.tantratenerife.es/?utm_source=google&utm_medium=wix_google_business_profile&utm_campaign=9016725780085196097,dpo-google@google.com,5,97,,"establishment, point_of_interest",28.0481282,-16.7104946,,OPERATIONAL,,ChIJHWyUrESZagwR2pzL-IwpAaw,Santa Cruz de Tenerife,Islas Canarias,España,No,1,ayurveda · españa
Centro de Osteopatia- Yaiza,🪷 Ayurveda,"Avinguda del Císter, 27, Nord, 07010, Illes Balears, Spain",669 47 47 57,https://osteopatiaconyaiza.com/,yaiza.osteo@gmail.com,5,18,,"establishment, health, point_of_interest",39.6080603,2.6362871,,OPERATIONAL,,ChIJeTXMWIOTlxIRwzKZNbrAWpY,Baleares,Islas Baleares,España,No,2,ayurveda · españa
Yoga del Mar,🪷 Ayurveda,"Carrer del Vicari Joaquim Fuster, 113a, Platja de Palma i Pla de Sant Jordi, 07006 Palma, Illes Balears, Spain",674 42 20 35,https://www.yogadelmar.es/en/,info@yogadelmar.es,4.7,63,,"establishment, gym, health, point_of_interest",39.5587206,2.6755084,,OPERATIONAL,,ChIJEczb2O6TlxIRVsZj8aSrII8,Baleares,Islas Baleares,España,No,2,ayurveda · españa
Yoga Real,🪷 Ayurveda,"Carrer de la Reina Constança, 20, 2 izquierda, Llevant, 07006 Palma, Illes Balears, Spain",650 47 70 18,http://www.yogareal.es/,info@yogareal.es,5,43,,"establishment, gym, health, point_of_interest",39.5689886,2.6583166,,OPERATIONAL,,ChIJtQ_YJJOTlxIRCeuE0duBab8,Baleares,Islas Baleares,España,No,2,ayurveda · españa
WELLNESS MASSAGE MALLORCA | Villa & Yacht Service | only inhouse service,🪷 Ayurveda,"mobile massage, Carrer d'Elcano, Ponent, 07014 Palma, Illes Balears, Spain",630 32 18 44,https://www.wellnessmassagemallorca.com/,info@wellnessmassagemallorca.com,5,101,,"establishment, health, point_of_interest",39.5702699,2.6303716,,OPERATIONAL,,ChIJj0Suj2-SlxIRNaq077xu8iA,Islas Baleares,Islas Baleares,España,No,1,ayurveda · españa
Silentia Spa & Wellness,🧖‍♀️ Spa,"Av. Primavera, 8, 07638 Ses Salines, Illes Balears, Spain",871 62 03 62,https://hotelcoto.es/spa,silentia.spa@hotelcoto.es,4.5,20,,"establishment, point_of_interest, spa",39.3236964,2.9877872,,CLOSED_TEMPORARILY,,ChIJn0VOlhyplxIR-r69ROa5Rok,Islas Baleares,Islas Baleares,España,No,1,ayurveda · españa
Masaje Mallorca - Terapias Naturales Mallorca - MENTNATURE,🪷 Ayurveda,"Gran Via Colom, 56, 07300 Inca, Illes Balears, Spain",618 19 30 80,http://www.mentnature.com/,info@mentnature.com,4.8,238,,"establishment, health, point_of_interest",39.7179792,2.9110311,,OPERATIONAL,,ChIJzxIXZMfFlxIRbB5GHogPqcU,Baleares,Islas Baleares,España,No,2,ayurveda · españa
Centro de Ayurveda,🪷 Ayurveda,"Carrer de Cotoner, 31, Ponent, 07013 Palma, Illes Balears, Spain",629 03 23 04,http://www.ayurvedapalma.com/tratamientos-y-masajes/,annett.levy@gmail.com,4.6,27,,"establishment, health, point_of_interest",39.5719183,2.6374195,,CLOSED_TEMPORARILY,,ChIJx1VvvmeSlxIRV74OGIKBAFo,Islas Baleares,Islas Baleares,España,No,1,ayurveda · españa
Tara Harmonia – Centre de benestar,🧖‍♀️ Spa,"Carrer de Son Boga, 19, 07500 Manacor, Illes Balears, Spain",616 65 53 43,https://taraarmonia.es/,info@taraarmonia.es,4.9,60,,"establishment, health, point_of_interest, spa",39.5746872,3.2149623,,OPERATIONAL,,ChIJS6SDua1JlhIRSCrMB9vVCB8,Baleares,Islas Baleares,España,No,2,ayurveda · españa
bodhana wellness centre,🪷 Ayurveda,"Calle de, Carrer Benito Jerónimo Feijóo, 2, local 12, 07181 mallorca, Illes Balears, Spain",971 67 64 69,http://www.bodhana.com/,info@bodhana.com,4.6,92,,"establishment, gym, health, point_of_interest, spa",39.5331165,2.5666218,,OPERATIONAL,,ChIJf6JkHpuOlxIRpnMU7QBYtQE,Baleares,Islas Baleares,España,No,2,ayurveda · españa
Kika Mas Centro de Bienestar - Naturopatía y Masajes,🪷 Ayurveda,"Camí Moliners, 1, 1 A, Centre, 07001 Palma, Illes Balears, Spain",619 54 51 02,https://kikamas.com/,kikamascentrodebienestar@gmail.com,4.9,74,,"establishment, health, point_of_interest",39.5726621,2.652171,,OPERATIONAL,,ChIJheRqClGSlxIR8npDrecDXHI,Baleares,Islas Baleares,España,No,2,ayurveda · españa
"TAPOVAN AYURVEDA ""Masajes y Reflexología Podal""",🪷 Ayurveda,"Avinguda de Joan Miró, 297, Ponent, 07015 Sant Agustí, Illes Balears, Spain",654 32 76 43,http://www.tapovanayurveda.com/,info@tapovanayurveda.com,5,56,,"establishment, health, point_of_interest",39.5523922,2.6028282,,OPERATIONAL,,ChIJXys6rL-NlxIRNyuOP4a8CYo,Baleares,Islas Baleares,España,No,2,ayurveda · españa
Mananda Yoga & Holistic Coaching,🪷 Ayurveda,"Centre, 07004 Palma, Balearic Islands, Spain",674 72 57 66,http://www.manandayoga.com/,info@manandayoga.com,5,40,,"establishment, health, point_of_interest",39.5769608,2.6526795,,OPERATIONAL,,ChIJqUCNPkGTlxIRoRR0HPT4-gs,Baleares,Islas Baleares,España,No,2,ayurveda · españa
Moksha Ayurveda Mallorca,🪷 Ayurveda,"Alqueries, 25, 07142 Santa Eugènia, Illes Balears, Spain",627 28 99 09,http://www.moksha-ayurveda.com/,info@moksha-ayurveda.com,5,23,,"establishment, health, point_of_interest",39.6328971,2.8457157,,OPERATIONAL,,ChIJQWXvpBYphaERCz9LDVxBNw0,Baleares,Islas Baleares,España,No,2,ayurveda · españa
Centro qiromass,🪷 Ayurveda,"Carrer de Cala Pi, 1, Llevant, 07009 Palma, Illes Balears, Spain",657 68 92 95,http://centroqiromass.com/,centroqiromass@gmail.com,5,107,,"establishment, health, point_of_interest, spa",39.5984481,2.6808772,,OPERATIONAL,,ChIJB-qOAb6TlxIRcPpEu6JB7Lg,Baleares,Islas Baleares,España,No,2,ayurveda · españa
Centro Dharma Shanti Felanitx,🪷 Ayurveda,"Carrer de So'n Morei, 26, 07200 Felanitx, Illes Balears, Spain",602 48 52 85,https://www.instagram.com/centrodharmashanti/,jovenes@sathyasai.org.ar,5,24,,"establishment, point_of_interest",39.4669936,3.1470184,,OPERATIONAL,,ChIJPXzlwCFNlhIRxbq84ttCujg,Baleares,Islas Baleares,España,No,2,ayurveda · españa
Mangala Massage Mallorca,🧖‍♀️ Spa,"Costa d´en Morell Poligono 8, Parcela 349, 07640 Ses Salines, Illes Balears, Spain",684 19 18 42,http://www.mangala-massage-mallorca.com/,wahrlich@aol.com,4.9,19,,"establishment, health, point_of_interest, spa",39.3619613,3.0253972,,OPERATIONAL,,ChIJs7SdnsirlxIRf-eS1HTD6Qk,Baleares,Islas Baleares,España,No,2,ayurveda · españa
The Wellbeing art Ibiza - Medicina Tradicional China/ Acupuntura/Masaje,🪷 Ayurveda,"Carrer Arrapatxita, 14, 07819 Cap Martinet, Illes Balears, Spain",606 15 58 09,http://www.marinaprohens.com/,info@marinaprohens.com,5,41,,"establishment, health, point_of_interest, spa",38.9183657,1.4688873,,OPERATIONAL,,ChIJX1suSbJHmRIRpIH70Flgxag,Baleares,Islas Baleares,España,No,2,ayurveda · españa
Naseem Touch,🪷 Ayurveda,"Residencia Azul Club, Avinguda de Cala Llenya, 77, 07850 Cala Llenya, Illes Balears, Spain",697 38 01 69,https://www.naseemtouch.com/,naseem@naseemtouch.com,5,56,,"establishment, health, point_of_interest",39.0179128,1.5943602,,OPERATIONAL,,ChIJ8SWIi3YVmRIR0GkTinBnTEY,Baleares,,España,No,2,ayurveda · españa
Massage Ibiza - in studio or home visits | Masaje en gabinete o a domicilio,🪷 Ayurveda,"Pl. des Parc, 3, 07800 Eivissa, Illes Balears, Spain",632 92 24 04,https://ibizamassages.com/,info@ibizamassages.com,4.8,183,,"establishment, point_of_interest, spa",38.9089597,1.4338225,,OPERATIONAL,,ChIJRzxiujtHmRIRB73p9H9Hlus,Baleares,Islas Baleares,España,No,2,ayurveda · españa
Chandra Ibiza,🪷 Ayurveda,"C/ d'Aragó, 76, planta baja, 07800 Eivissa, Illes Balears, Spain",653 35 42 64,http://www.chandraibiza.es/,chandraibiza@gmail.com,5,75,,"establishment, gym, health, point_of_interest",38.9078884,1.4246898,,OPERATIONAL,,ChIJ-drIe7pGmRIRL9bqz-o1z8k,Baleares,Islas Baleares,España,No,2,ayurveda · españa
Elena Álvarez Alma Ayurveda,🪷 Ayurveda,"C. Uría, 31, bajo, Centro, 33205 Gijón, Asturias, Spain",635 62 50 62,http://www.almaayurveda.com/,lvarez elenaalmaayurveda@gmail.com,5,136,,"establishment, health, point_of_interest",43.538587,-5.65512,,OPERATIONAL,,ChIJrR9fEmF8Ng0RTG4PEOLmce4,Asturias,Asturias,España,No,1,ayurveda · españa
Tu Momento - Asturias,🪷 Ayurveda,"C. José Francés, 4, 33401 Avilés, Asturias, Spain",984 99 06 40,https://massage.ivof.com/tu-momento/,info@ivof.com,4.9,82,,"establishment, health, point_of_interest",43.5585424,-5.9304339,,OPERATIONAL,,ChIJ03JhK32bNg0R3r6v6W7r-vQ,Asturias,Asturias,España,No,2,ayurveda · españa
Classical Hatha Yoga y Ayurveda Patanga,🪷 Ayurveda,"C. Altamira Baja, 8, 33440 Luanco, Asturias, Spain",687 82 18 58,http://www.patanga.es/,info@patanga.es,5,36,,"clothing_store, establishment, gym, health, point_of_interest, store",43.6162402,-5.7949451,,OPERATIONAL,,ChIJxzK-GaCBNg0RhKRbDPstwQw,Asturias,Asturias,España,No,2,ayurveda · españa
Zarza,🪷 Ayurveda,"Pl. Vaticano, 3, 33401 Avilés, Asturias, Spain",985 56 24 47,http://www.centronaturalzarza.es/,info@centronaturalzarza.es,4.9,20,,"establishment, health, point_of_interest",43.5556153,-5.9287221,,OPERATIONAL,,ChIJn3jnm2SbNg0RVVCgKqHmyw8,Asturias,Asturias,España,No,2,ayurveda · españa
O Carboeiro Yoga,🪷 Ayurveda,"Lugar Os Carboeiros, 2, 27714 Ribadeo, Lugo, Spain",606 84 58 93,http://www.ocarboeiro.com/,ocarboeiroyoga@gmail.com,5,23,,"establishment, gym, health, point_of_interest",43.5091092,-7.0781342,,OPERATIONAL,,ChIJSeJaKdR_MQ0RHKsT2O6QugU,Lugo,Galicia,España,No,1,ayurveda · españa
Anahata Centro de Yoga y Bienestar y Gong,🪷 Ayurveda,"C/Real, 35, 34810 Matamorisca, Palencia, Spain",638 08 02 75,http://www.resonanciaholistica.com/,info@resonanciaholistica.com,5,17,,"establishment, gym, health, point_of_interest",42.8441562,-4.3082597,,OPERATIONAL,,ChIJU8dXoPPzSA0R7w-1YEu2WBo,Burgos,Castilla y León,España,No,1,ayurveda · españa
Centre de Bien-être Ayurvédique - Asso. Mains Libres,🧖‍♀️ Spa,"120 route de Rapanas, 31510 Sauveterre-de-Comminges, France",06 77 01 83 83,http://www.association-mains-libres.sitew.fr/,association.mainslibres@gmail.com,4.9,16,,"establishment, point_of_interest, spa",43.0379593,0.6649714,,OPERATIONAL,,ChIJq4IMSd1AtBIRQ7R8vJCsqAU,Pyrénées-Atlantiques,,Francia,No,2,ayurveda · españa
Mariannick Fouyet,🧖‍♀️ Spa,"10 Rue Sainte-Anne, 65100 Lourdes, France",06 73 11 58 22,https://www.mariannickfouyet.com/,mariannick.fouyet@gmail.com,5,122,,"establishment, point_of_interest, spa",43.091428,-0.0509078,,OPERATIONAL,,ChIJl5R3FzrXVw0R9qrzMJRIfqY,Gironde,,Francia,No,1,ayurveda · españa
Emmanuelle Maurin,🪷 Ayurveda,"6 Rue Saint-Grat, 64400 Oloron-Sainte-Marie, France",06 14 48 94 08,https://www.vedaya.fr/,espace.vedaya@gmail.com,4.9,18,,"establishment, health, point_of_interest",43.1880238,-0.6173027,,OPERATIONAL,,ChIJicVsX_L_Vg0RkvHXsE6Hb1A,Pyrénées-Atlantiques,,Francia,No,2,ayurveda · españa
Zen massage Armonia,🧖‍♀️ Spa,"C. María Bayo, 1, Bajo A, 31195 Nueva, Navarra, Spain",653 36 33 62,https://orientalharmony.com/,isabel@orientalharmony.com,4.9,532,,"establishment, point_of_interest, spa",42.8337664,-1.6587219,,OPERATIONAL,,ChIJJYD9s7-SUA0R7qfwhqrkr5E,Navarra,Comunidad Foral de Navarra,España,No,2,ayurveda · españa
AURA Yoga Lleida,🪷 Ayurveda,"Carrer Baró de Maials, 16, Altell, 25005 Lérida, Spain",605 74 40 13,https://www.auralleida.com/,info@auralleida.com,4.9,35,,"establishment, gym, health, point_of_interest",41.6219056,0.6365713,,OPERATIONAL,,ChIJF9Qp_WbhphIR6HhG8VaNfC4,Lleida,Cataluña,España,No,2,ayurveda · españa
Ananta Ayurveda,🪷 Ayurveda,"C. de Margarita Xirgu, 20, 50018 Zaragoza, Spain",665 91 31 83,http://www.anantaayurveda.es/,hola@anantaayurveda.es,5,123,,"establishment, health, point_of_interest",41.6784749,-0.893407,,OPERATIONAL,,ChIJQfEaKecUWQ0R294pGhiDDlM,Zaragoza,Aragón,España,No,2,ayurveda · españa
Makam Yoga y Ayurveda Zaragoza,🪷 Ayurveda,"C. de Torrellas, Casco Antiguo, 50001 Zaragoza, Spain",644 89 93 95,http://makam.es/,info@makam.es,5,32,,"establishment, gym, health, point_of_interest",41.6528843,-0.8734129,,OPERATIONAL,,ChIJvfhOZvEUWQ0RgJQGiM1S3d4,Zaragoza,Aragón,España,No,2,ayurveda · españa
Centro Shanti (Masajes y Terapias Alternativas),🪷 Ayurveda,"Av. San Jorge, 47, 44500 Andorra, Teruel, Spain",978 84 51 19,http://centro-shanti.com/,contacto@centro-shanti.com,4.9,21,,"establishment, health, point_of_interest",40.9772239,-0.4457341,,OPERATIONAL,,ChIJ9Zp8sUk9Xw0R11VKfQ9f5dY,Teruel,Aragón,España,No,1,ayurveda · españa
Palasiet Wellness Clinic & Thalasso,🪷 Ayurveda,"Calle Pontazgo, 11, 12560 Benicàssim, Castelló, Spain",964 30 02 50,http://www.palasiet.com/,info@palasiet.com,4.2,689,,"establishment, food, gym, health, lodging, point_of_interest, restaurant, spa",40.0579261,0.0875128,,OPERATIONAL,,ChIJ-505RvEDoBIRHSJm_4i3Rh4,Tarragona,Cataluña,España,No,1,ayurveda · españa
MÁKIA |Holistic yoga| शाल,🪷 Ayurveda,"Carrer Delegat Valera, 3, 12180 Cabanes, Castelló, Spain",687 87 03 55,https://www.instagram.com/maicallorens_?igsh=czZ2cHNuejgwdmpl,info@yogakeyslife.com,5,37,,"establishment, gym, health, point_of_interest",40.1551851,0.0438933,,OPERATIONAL,,ChIJoY-MVw0JoBIRx52OqpY5U4M,Tarragona,Cataluña,España,No,1,ayurveda · españa
Ayurveda Lifestyle By Bharat Negi,🪷 Ayurveda,"Carrer Salamanca, 12, 46183 L'Eliana, Valencia, Spain",962 32 44 78,http://www.ayurvedabybharatnegi.com/,hola@miempresa.es,4.9,41,,"establishment, gym, health, point_of_interest, spa",39.573789,-0.526687,,OPERATIONAL,,ChIJ0z48k6leYA0R_67KU7D0W6Q,Valencia,Comunidad Valenciana,España,No,1,ayurveda · españa
Ayurveda Jaén: Centro de Yoga y naturopatía India,🪷 Ayurveda,"Pl. Almazara, local 2, 23600 Martos, Jaén, Spain",611 00 86 92,http://www.ayurvedajaen.com/,info@ayurvedajaen.com,5,21,,"establishment, gym, health, point_of_interest",37.7235059,-3.9709151,,OPERATIONAL,,ChIJCVWaeWbFbQ0R3iK6uGtRLdk,Jaén,Andalucía,España,No,1,ayurveda · españa
Centro Sevilla Bienestar,🪷 Ayurveda,"C. Vereda de Chapatales, 3, 41300 San José de la Rinconada, Sevilla, Spain",954 96 95 34,https://sevillabienestar.es/,centro@sevillabienestar.es,4.3,48,,"establishment, point_of_interest",37.4878313,-5.9363748,,OPERATIONAL,,ChIJMbYLMCpoEg0RZKjhCK3yP7s,Sevilla,Andalucía,España,No,1,ayurveda · españa
MASAJES Mojácar • Beauty & Shop,🪷 Ayurveda,"Edificio los Terreros, P.º del Mediterráneo, 8, Local 4, 04638 Ventanicas-el Cantal, Almería, Spain",657 78 95 21,https://www.instagram.com/masajesmojacar?igsh=YXk3MWg3YmRvNDhk,info@ochoproperties.com,5,99,,"establishment, point_of_interest, spa",37.1103922,-1.8439223,,OPERATIONAL,,ChIJWTh7M87Xeg0RkGV1RgMI6h8,Almería,Andalucía,España,No,1,ayurveda · españa
"Loto Azul Wellness - Terapias alternativas, gravedad cero, haloterapia, danzaterapia y masajes ayurvédicos en Almería.",🪷 Ayurveda,"C. la Marina, 2, local 15, 04007 Almería, Spain",624 44 21 82,https://lotoazulwellness.com/,lotoazulwellness@gmail.com,5,24,,"establishment, health, point_of_interest, spa",36.8303499,-2.4568595,,OPERATIONAL,,ChIJJdBlduTqCEsRaiMCL84BzJQ,Almería,Andalucía,España,No,1,ayurveda · españa
La Rueda Natural,🪷 Ayurveda,"Cam. el Jau, 6, 18320 Santa Fe, Granada, Spain",958 51 17 60,https://laruedanatural.es/,info@laruedanatural.es,4.2,20,,"establishment, point_of_interest",37.1925387,-3.7246083,,OPERATIONAL,,ChIJtedakAT_cQ0RhfvhqQ1P4eU,Granada,Andalucía,España,No,2,ayurveda · españa
FULL VITALITY SPA SIERRA NEVADA,🪷 Ayurveda,"C. Maribel, nº 10, 18196 Sierra Nevada, Granada, Spain",610 98 89 56,https://www.spafullvitality.com/spa/sierra-nevada/,info@spafullvitality.com,4.9,69,,"establishment, point_of_interest, spa",37.0925126,-3.3949595,,OPERATIONAL,,ChIJ32T-tkTdcQ0RUJQDm-h3XGw,Granada,Andalucía,España,No,1,ayurveda · españa
Sabai Salud Thai Massage,🪷 Ayurveda,"C. Alminares del Genil, 3, Genil, 18006 Granada, Spain",644 41 95 61,https://linktr.ee/sabaisaludthaimassage,sabaisalud@gmail.com,4.9,190,,"establishment, health, point_of_interest, spa",37.1665113,-3.596317,,OPERATIONAL,,ChIJ25h484r9cQ0RtIK0zGwDivg,Granada,Andalucía,España,No,1,ayurveda · españa
Ecobarrio Herbolario,🪷 Ayurveda,"C. Joaquina Eguaras, 84, Norte, 18013 Granada, Spain",958 96 36 14,http://www.herbolarioecobarrio.es/,info@herbolarioecobarrio.es,4.7,65,,"establishment, gym, health, point_of_interest",37.2032539,-3.6099119,,OPERATIONAL,,ChIJi6E0U-L8cQ0R-nUkqPyrIHY,Granada,Andalucía,España,No,2,ayurveda · españa
Ayurveda Medicina Natural Lola Peña,🪷 Ayurveda,"C. Mexuar, 88, 18630 Otura, Granada, Spain",644 79 94 46,https://www.ayurvedamedicinanatural.es/,ayurvedaw2w@gmail.com,5,26,,"establishment, health, point_of_interest",37.0876513,-3.6246261,,OPERATIONAL,,ChIJzagL3lP7cQ0Rh8gyUeGS6Q8,Granada,Andalucía,España,No,2,ayurveda · españa
Quiroesencia,🪷 Ayurveda,"C. San Jerónimo, 48, local, Centro, 18001 Centro, Granada, Spain",621 21 75 95,https://quiroesencia.com/,info@quiroesencia.com,4.9,138,,"establishment, point_of_interest",37.1796228,-3.6021412,,OPERATIONAL,,ChIJn5x3fTb9cQ0Rjr2C6t1dRUo,Granada,Andalucía,España,No,2,ayurveda · españa
BorealRelax: Centro de Masajes y Wellness Spa,🪷 Ayurveda,"C. Gral. Narváez, 5, Ronda, 18002 Granada, Spain",615 42 13 55,http://www.borealrelax.es/,info@borealrelax.es,4.8,1127,,"establishment, health, point_of_interest, spa",37.1720066,-3.6038816,,OPERATIONAL,,ChIJk3YPc7_8cQ0RYQJNe0he56I,Granada,Andalucía,España,No,1,ayurveda · españa
Shakti YOGA,🪷 Ayurveda,"Calle San Vicente de Paúl, 3, 41620 Marchena, Sevilla, Spain",678 08 30 20,http://www.shaktiyogastudio.es/,shakti.yogui@gmail.com,5,28,,"establishment, gym, health, point_of_interest",37.3251204,-5.4231018,,OPERATIONAL,,ChIJX7KCL2eZEg0RPeEJSr-c0wU,Cádiz,Andalucía,España,No,2,ayurveda · españa
Centro Medicina Natural - Ayurveda,🪷 Ayurveda,"avenida de la astronomia, 1, Torre 4. Planta 5. Módulo 4, Norte, 41015 Sevilla, Spain",696 18 25 61,http://www.cmngenerosaflores.es/,hola@miempresa.es,5,32,,"establishment, health, point_of_interest",37.4258024,-5.9739757,,OPERATIONAL,,ChIJs4nlrgVsEg0RHIbD9Cqwt2Q,Sevilla,Andalucía,España,No,1,ayurveda · españa
Masajes Tantra Sevilla,🪷 Ayurveda,"C. Albuera, 13, Casco Antiguo, 41001 Sevilla, Spain",661 96 66 61,https://www.tantrasevilla.com/,tantracenter117@gmail.com,4.8,49,,"establishment, point_of_interest",37.3888689,-6.001712,,OPERATIONAL,,ChIJlevyvSRtEg0RBYgiEEQkxP0,Sevilla,Andalucía,España,No,2,ayurveda · españa
Ocean yoga Studio,🪷 Ayurveda,"Calle Grupo Oscar Carvallo, n°9, 41018 Sevilla, Spain",676 05 24 00,http://www.oceanyogastudio.es/,contacto@oceanyogastudio.es,5,52,,"establishment, gym, health, point_of_interest",37.3850139,-5.9778551,,OPERATIONAL,,ChIJk2QWM5ptEg0R7ww6kZbDS8Q,Sevilla,Andalucía,España,No,2,ayurveda · españa
yuj es yoga,🪷 Ayurveda,"Calle Dr. Antonio Cortés Lladó, 3, local, 41004 Sevilla, Spain",644 53 67 75,https://yuj.es/,hola@yuj.es,5,80,,"establishment, gym, health, point_of_interest",37.3779037,-5.9814373,,OPERATIONAL,,ChIJR6Fux-NvEg0RfIax_QwF6gk,Sevilla,Andalucía,España,No,2,ayurveda · españa
Guruveda Yoga,🪷 Ayurveda,"C. San Hermenegildo, 13, Casco Antiguo, 41003 Sevilla, Spain",627 34 77 46,https://guruvedayoga.com/,guruvedayoga@gmail.com,5,38,,"establishment, gym, health, point_of_interest",37.399175,-5.984868,,OPERATIONAL,,ChIJ-VF-6zltEg0RvBRnBRP4-XI,Sevilla,Andalucía,España,No,2,ayurveda · españa
MAR. Movimiento y Bienestar,🪷 Ayurveda,"C. Duque de Ahumada, 7, 21004 Huelva, Spain",644 35 53 83,http://www.marmovimientoybienestar.com/,mar.movimientoybienestar@gmail.com,5,43,,"establishment, gym, health, point_of_interest",37.2605854,-6.9443299,,OPERATIONAL,,ChIJe8Fup1HPEQ0RwTYYoW081Cs,Cádiz,Andalucía,España,No,1,ayurveda · españa
Ayurfeel,🪷 Ayurveda,"P.º de Almería, 37, 6º3, 04001 Almería, Spain",652 27 00 91,https://www.ayurfeel.es/,laura@ayurfeel.es,5,224,,"establishment, health, point_of_interest, spa",36.8388372,-2.4631576,,OPERATIONAL,,ChIJSyo1RVefeg0RJah_uv6h8p0,Almería,Andalucía,España,No,2,ayurveda · españa
Shama Yoga Studio,🪷 Ayurveda,"C. Catalanes, 4, Entreplanta, 18600 Motril, Granada, Spain",647 18 15 87,https://shama-yoga-studio.my.canva.site/shama-yoga-studio-my-canva-site?fbclid=PAAaZQcBvqmZuaF8_CZqrR4TmPCaradAB-Z8qVeRIIOHUg7tYobqUQk1Ewel0,shama.studio.yoga@gmail.com,5,21,,"establishment, gym, health, point_of_interest",36.7458683,-3.5196222,,OPERATIONAL,,ChIJ62qmGf6RcQ0R9QawUjDHWOE,Málaga,Andalucía,España,No,1,ayurveda · españa
Shiva center Torrox,🪷 Ayurveda,"Av. Europa, 82, bajo 5, 29770 Torrox Costa, Málaga, Spain",606 61 42 94,http://www.centroshivatorrox.com/,centroshivatorrox@gmail.com,4.8,56,,"establishment, gym, health, point_of_interest, spa, store",36.7291949,-3.9622846,,OPERATIONAL,,ChIJvdmOeW46cg0Rc9uI_xf-xww,Málaga,Andalucía,España,No,1,ayurveda · españa
Centro Hara,🪷 Ayurveda,"C. Juan Sebastián Elcano, 14, 29640 Fuengirola, Málaga, Spain",634 70 22 98,http://www.haraformacion.com/,info@haraformacion.com,5,122,,"establishment, health, point_of_interest",36.5446361,-4.6185158,,OPERATIONAL,,ChIJWz0XzUPicg0RlUm1s3rqG3A,Málaga,Andalucía,España,No,1,ayurveda · españa
"Centro de Naturopatía, Quiromasaje y Osteopatía, Cháman",🪷 Ayurveda,"C. Montes de Oca, 20, Distrito Centro, 29007 Málaga, Spain",675 87 74 77,http://chamancenter.com/,info@chamancenter.com,4.6,82,,"establishment, health, point_of_interest",36.7196883,-4.4301849,,OPERATIONAL,,ChIJhanCQ5j3cg0RMpDCsyigPAU,Málaga,Andalucía,España,No,1,ayurveda · españa
Yantra Yoga & Wellness Center,🪷 Ayurveda,"Carril del Sanatorio, 2, 29620 Torremolinos, Málaga, Spain",616 58 12 21,https://www.yantrawellness.net/,info@yantrawellness.net,5,41,,"establishment, gym, health, point_of_interest",36.6404843,-4.4932491,,OPERATIONAL,,ChIJv6jFxrT7cg0RoXnSrjJplyk,Málaga,Andalucía,España,No,1,ayurveda · españa
Quirochema | masaje - masajista - thai massage - quiromasajista - relajante - tailandés - centro holístico en malaga,🪷 Ayurveda,"C. Manzanilla, 22, 29130 Alhaurín de la Torre, Málaga, Spain",677 09 23 51,https://www.quirochema.com/,quirochema@gmail.com,5,76,,"establishment, point_of_interest",36.6566166,-4.537975,,OPERATIONAL,,ChIJ55E3Myn7cg0Rj8CYt6mwQTQ,Málaga,Andalucía,España,Sí,5,ayurveda · españa
Bali Serenity Massage Marbella,🧖‍♀️ Spa,"Av. Ramón y Cajal, 4, Local 11, 29601 Marbella, Málaga, Spain",670 44 57 15,https://gratis-5037245.webadorsite.com/,soporte@webador.es,4.9,56,,"establishment, health, point_of_interest, spa",36.5084313,-4.8845753,,OPERATIONAL,,ChIJq_xu2VIncw0R2SRI5-8DNK0,Málaga,Andalucía,España,No,1,ayurveda · españa
Ayurveda Yoga Health - Yoga Vidya Torrox Costa,🪷 Ayurveda,"Av. América, Bl.88, local 6 bajo, 29770 Torrox Costa, Málaga, Spain",644 59 73 53,http://www.ayurveda-yoga-health.com/,ayurvedayogatorrox@gmail.com,5,62,,"establishment, gym, health, point_of_interest, spa",36.730556,-3.9641602,,OPERATIONAL,,ChIJifKpWXE7cg0RHprcvaD_wpQ,Málaga,Andalucía,España,No,2,ayurveda · españa
Herbolario Mare Nostrum,🪷 Ayurveda,"Av. del Mediterráneo, 77, 29730 Rincón de la Victoria, Málaga, Spain",952 40 69 29,https://herbolariomarenostrum.es/,marenostrumherbolario@gmail.com,4.9,48,,"book_store, establishment, food, grocery_or_supermarket, gym, health, point_of_interest, store",36.7157172,-4.2884516,,OPERATIONAL,,ChIJY6Dh33Facg0R17hGVmXVU50,Málaga,Andalucía,España,No,1,ayurveda · españa
Royal Thai Massage Center,🪷 Ayurveda,"Av. del Mar, 20, lacal3 29602 Marbella, Málaga, Spain",684 12 80 26,https://www.fresha.com/book-now/royal-thai-massage-center-k3r8evi1/gift-cards?share=true&pId=2589353,hello@fresha.com,4.9,218,,"establishment, point_of_interest",36.5073681,-4.8868104,,OPERATIONAL,,ChIJt89yGjoncw0RyyMAoFSmEzo,Málaga,Andalucía,España,No,1,ayurveda · españa
Gemburu Wellness,🧖‍♀️ Spa,"C. Almendro, 27, 351 A, 29679 Benahavís, Málaga, Spain",611 82 15 51,https://www.gemburu-wellness.com/,info.gemburu@gmail.com,5,16,,"establishment, health, point_of_interest, school, spa",36.4827424,-5.0384305,,OPERATIONAL,,ChIJ94-C4vsrcw0RLINN2IKWViY,Málaga,Andalucía,España,No,1,ayurveda · españa
Full Vitality Spa - Home Massage Service Marbella,🧖‍♀️ Spa,"C. los Tilos, sn, Nueva Andalucía, 29660 Marbella, Málaga, Spain",610 98 89 56,https://spafullvitality.com/en/home-massage-marbella/,fullvitalityspa@gmail.com,5,140,,"establishment, point_of_interest, spa",36.4942573,-4.9642914,,OPERATIONAL,,ChIJMS_E2Qcpcw0Rn6U1E9GY0DY,Málaga,Andalucía,España,No,2,ayurveda · españa
ANS CLINIC,🧖‍♀️ Spa,"Los Naranjos, Av. de Barcelona, 4, Bajo b, 29670 Marbella, Málaga, Spain",722 32 20 94,https://ansclinic.es/,contact@ansclinic.es,4.9,17,,"establishment, health, point_of_interest, spa",36.4816754,-4.9861415,,OPERATIONAL,,ChIJx7u-NBYrcw0RPo4iXx9oAeI,Málaga,Andalucía,España,No,1,ayurveda · españa
Centro KIRAN,🪷 Ayurveda,"C. González Marín, 14, 29570 Cártama, Málaga, Spain",645 17 54 25,http://www.centrokiran.com/,info.centrokiran@gmail.com,5,44,,"establishment, gym, health, point_of_interest, school",36.7122757,-4.6288377,,OPERATIONAL,,ChIJ4cl3i9vvcg0Rc-huJ6mNrLE,Málaga,Andalucía,España,No,1,ayurveda · españa
Wings Of Wellness Yoga,🪷 Ayurveda,"Aloha Pueblo, local 33, Nueva Andalucía, 29660 Marbella, Málaga, Spain",623 47 33 68,http://www.wingsofwellnessyoga.es/,hola@wingsofwellnessyoga.es,5,41,,"establishment, gym, health, point_of_interest, spa",36.5106595,-4.9640018,,OPERATIONAL,,ChIJJ1cv9JA3Qg0RoOQKTYLveFE,Málaga,Andalucía,España,No,1,ayurveda · españa
Lori Sjollema,🪷 Ayurveda,"C. Comunidad San Javier, 27, Nueva Andalucía, 29660 Marbella, Málaga, Spain",639 84 51 85,https://yoga-in-marbella.net/,info@yoga-in-marbella.net,5,41,,"establishment, gym, health, point_of_interest",36.5048248,-4.9542425,,OPERATIONAL,,ChIJ90CDoj4pcw0RSnqWqDijRAw,Málaga,Andalucía,España,No,1,ayurveda · españa
In Ayurveda Terapias y Nutrición,🪷 Ayurveda,"Centro de Negocios Hormaza, C. Hormaza, 10, Oficina 5, 11130 Chiclana de la Frontera, Cádiz, Spain",629 94 93 35,https://www.instagram.com/in_ayurveda?utm_source=qr&igsh=d3RsdDI2ZzVneTVs,lanutri.integrativa@gmail.com,5,25,,"establishment, health, point_of_interest",36.4181433,-6.149477,,OPERATIONAL,,ChIJOc-RwNE1DA0R7peesLoZYxs,Cádiz,Andalucía,España,No,1,ayurveda · españa
Herboristería Ayurveda,🪷 Ayurveda,"C. Estocolmo, 2, Local 1, 11405 Jerez de la Frontera, Cádiz, Spain",856 61 02 63,https://www.facebook.com/herboristeria.ayurveda.7,herboristeriaayurveda@gmail.com,5,24,,"establishment, health, point_of_interest",36.6909122,-6.1084859,,OPERATIONAL,,ChIJP7S5ECbHDQ0RVYSzJPe550U,Málaga,Andalucía,España,No,1,ayurveda · españa
Espacio Shantala,🪷 Ayurveda,"C. Ganado, 3, 11540 Sanlúcar de Barrameda, Cádiz, Spain",678 57 92 24,http://www.biocentroshantala.es/,contact@espacioshantala.es,5,50,,"establishment, gym, health, point_of_interest",36.7777506,-6.3577222,,OPERATIONAL,,ChIJ_b2NsbrgDQ0RfFTgQUpqLOA,Cádiz,Andalucía,España,No,1,ayurveda · españa
Salud Natural Herbolario,🪷 Ayurveda,"C. Nao San Antonio, 3, 11540 Sanlúcar de Barrameda, Cádiz, Spain",668 69 89 71,http://www.herbolariossaludnatural.es/,info@website.com,4.6,53,,"establishment, health, point_of_interest",36.7792446,-6.3609143,,OPERATIONAL,,ChIJkcWN9CveDQ0RaWBK-9PkDHA,Cádiz,Andalucía,España,No,1,ayurveda · españa
Vida Ayurveda,🪷 Ayurveda,"C. Santo Domingo, 40, 11500 El Puerto de Sta María, Cádiz, Spain",654 82 29 00,https://vidaayurveda.es/,contactovidaayurveda@gmail.com,4.9,85,,"establishment, health, point_of_interest",36.5987083,-6.2288344,,OPERATIONAL,,ChIJgRxvw9TPDQ0RkJ6Atn0av0E,Cádiz,Andalucía,España,No,1,ayurveda · españa
ORIGEN Bienestar Integral | Yoga & Wellness Studio,🪷 Ayurveda,"Galerías Paniagua, Av. de Paniagua, s/n, local 6, 13 - 15, 11310 Sotogrande, Cádiz, Spain",676 49 18 96,https://www.origenyogasotogrande.com/,usuario@dominio.com,5,36,,"establishment, gym, health, point_of_interest, school",36.2861412,-5.3020004,,OPERATIONAL,,ChIJ523EeCvFDA0RorSy0uieRnQ,Málaga,Andalucía,España,No,2,ayurveda · españa
Fran Barahona Ayurveda Spa,🧖‍♀️ Spa,"C. Cartagena, 101, 30002 Murcia, Spain",868 95 06 66,https://www.franbarahona.com/,info@franbarahona.com,5,918,,"establishment, point_of_interest, spa",37.9767535,-1.1348559,,OPERATIONAL,,ChIJqeV52QGCYw0RjbCBSaNwA_s,Murcia,Región de Murcia,España,No,2,ayurveda · murcia
FITNESS ONE CENTER BENICARLO,🧘‍♀️ Centro de yoga,"Carr Sant Mateu, 11, 12580 Benicarló, Castellón, Spain",722 51 32 26,https://fitnessonecenter.com/,jorge@fitnessone.es,4.9,215,,"establishment, gym, health, point_of_interest",40.4221219,0.4150448,,OPERATIONAL,,ChIJlcdZB61FoBIR831_OziYeC0,Castellón,Comunidad Valenciana,España,Sí,5,centro pilates · españa
Gimnasio Ballester,🧘‍♀️ Centro de yoga,"Avenida de las Cortes Valencianas 15, Avinguda de les Corts Valencianes, 17, bajo, 12580 Benicarló, Castelló, Spain",964 47 03 04,https://gimnasioballester.com/,ballestergymblo@gmail.com,4.7,214,,"establishment, gym, health, point_of_interest",40.4125979,0.4239086,,OPERATIONAL,,ChIJvVx5TbhFoBIR8qJA22OszFU,Castellón,Comunidad Valenciana,España,Sí,5,centro pilates · españa
SYNERGIE PILATES STUDIO DONOSTIA 🌱,🧘‍♀️ Centro de yoga,"C. de Vitoria-Gasteiz, 2, 20018 Donostia / San Sebastián, Guipúzcoa, Spain",648 47 77 66,http://www.synergiepilates.net/,pilatessynergie@gmail.com,4.9,124,,"establishment, gym, health, point_of_interest",43.3140737,-2.0052096,,OPERATIONAL,,ChIJq29L_6C6UQ0RWojkXJF1rJA,Guipúzcoa,País Vasco,España,Sí,5,centro pilates · españa
Pilates y Funcional Bahia,🧘‍♀️ Centro de yoga,"C. Lealtad, 4, 39002 Santander, Cantabria, Spain",600 83 82 75,https://www.pilatessantander.com/,team@latofonts.com,5,152,,"establishment, gym, health, point_of_interest",43.4624552,-3.8085512,,OPERATIONAL,,ChIJ5STj1_hLSQ0RL6IJ_wP7O1Y,Cantabria,Cantabria,España,Sí,5,centro pilates · españa
GIMNASIO PEDREGAL COLLOTO,🧘‍♀️ Centro de yoga,"Av. Europa, 6, 33010 Colloto, Asturias, Spain",605 78 61 32,http://www.gimnasiopedregal.com/,info@gimnasiopedregal.com,4.9,135,,"establishment, gym, health, point_of_interest, school",43.3786627,-5.7917875,,OPERATIONAL,,ChIJOUpeV6-LNg0Rnb5uguKFXAs,Asturias,Asturias,España,Sí,5,centro pilates · españa
Matronas e Nais,🧘‍♀️ Centro de pilates,"Muñoz Balaguer, Rúa Ramón Montenegro, 30, bajo Centro, 27002 Lugo, Spain",660 48 28 99,http://www.matronasenais.es/,matronasenais@gmail.com,5,251,,"establishment, point_of_interest",43.0085977,-7.5496229,,OPERATIONAL,,ChIJyWVQrBDPMQ0RF-c6wASQ-Xg,Lugo,Galicia,España,Sí,5,centro pilates · españa
Fitness Park,🧘‍♀️ Centro de yoga,"Zaramaga Kalea, 1, 01013 Vitoria-Gasteiz, Araba, Spain",656 18 22 00,https://www.fitnesspark.es/club/vitoria-boulevard/?utm_medium=Local_Inventory&utm_source=GMB&utm_campaign=Vitoria-El-Boulevard&utm_content=Yext,vitoria-boulevard@fitnesspark.es,4.8,2668,,"establishment, gym, health, point_of_interest",42.8616942,-2.6690394,,OPERATIONAL,,ChIJyfy3buXDTw0RfjYEKRxX1T4,Álava,País Vasco,España,Sí,5,centro pilates · españa
Centro deportivo INCIPIT Sports solution for humans FITCROSS & HYBRID,🧘‍♀️ Centro de yoga,"C. Linares Rivas, n° 44, B, 26200 Haro, La Rioja, Spain",629 55 87 31,http://www.incipitentrenacontigo.com/,info@incipitentrenacontigo.com,4.9,108,,"establishment, gym, health, point_of_interest",42.5755174,-2.8431804,,OPERATIONAL,,ChIJ6YQr4kyLTw0RPCkMLm7Y54Q,La Rioja,La Rioja,España,Sí,5,centro pilates · españa
SANO Burgos - Entrenamiento Personal y Grupos Reducidos,🧘‍♀️ Centro de yoga,"P.º de la Isla, 7, 09003 Burgos, Spain",605 64 42 22,https://www.sanocenter.es/empresas/sano-burgos/,info@sanocenter.es,4.8,226,,"establishment, gym, health, point_of_interest",42.3403791,-3.7131498,,OPERATIONAL,,ChIJ7ShSs0D9RQ0Rt1KWcQupVUw,Burgos,Castilla y León,España,No,2,centro pilates · españa
Entrenaconfei,🧘‍♀️ Centro de pilates,"C. José Luis Pécker, 7, 24404 Ponferrada, León, Spain",633 03 86 57,https://entrenaconfei.com/,info@entrenaconfei.com,4.9,106,,"establishment, health, point_of_interest",42.5571575,-6.6098166,,OPERATIONAL,,ChIJ8TkpTl27MA0R1gzkbkJ9XAg,León,Castilla y León,España,Sí,5,centro pilates · españa
Gimnasio Sportia Cordón 5,🧘‍♀️ Centro de yoga,"C. Cordón, 5, 09004 Burgos, Spain",947 11 04 40,http://www.sportiagimnasios.com/,cordon5@sportiagimnasios.com,4.8,280,,"establishment, gym, health, point_of_interest",42.3421912,-3.6989022,,OPERATIONAL,,ChIJbf0BttT8RQ0RO7Hcf_OFp7k,Burgos,Castilla y León,España,No,2,centro pilates · españa
Centro de fisioterapia Kwal Physio,🧘‍♀️ Centro de yoga,"C. Bo. Nuevo, 32, bajo, 24200 Valencia de Don Juan, León, Spain",640 53 67 36,https://kwalphysio.com/,kwalphysio@gmail.com,4.9,118,,"establishment, gym, health, point_of_interest",42.2903214,-5.5203938,,OPERATIONAL,,ChIJJ_Zb0Q8lOA0Rv0SR26NOJN4,León,Castilla y León,España,Sí,5,centro pilates · españa
ANDRÉ FARIA,🧘‍♀️ Centro de pilates,"Plaza Andrés de Prada, Local Comercial n° 4, 32300 O Barco, Ourense, Spain",637 54 95 37,https://andrefariatrainer.com/,info@andrefariatrainer.com,5,218,,"establishment, health, point_of_interest",42.4157318,-6.9850746,,OPERATIONAL,,ChIJXUtEQDCFMA0R44aj12M7pys,Zamora,Castilla y León,España,No,2,centro pilates · españa
"Clínica FISAP Fisioterapia Avanzada, Suelo Pélvico y Pilates",🧘‍♀️ Centro de pilates,"C. General Almte., 7, 47003 Valladolid, Spain",691 10 70 05,http://www.clinicafisap.es/,hola@clinicafisap.es,5,536,,"establishment, health, point_of_interest",41.6542634,-4.7277942,,OPERATIONAL,,ChIJTTTr0BYTRw0R4vV3QK_Jcms,Palencia,Castilla y León,España,No,1,centro pilates · españa
Sportia,🧘‍♀️ Centro de yoga,"C. Don Sancho, 20, 47002 Valladolid, Spain",983 31 26 37,https://www.sportiagimnasios.com/,cordon5@sportiagimnasios.com,4.3,189,,"establishment, gym, health, point_of_interest",41.6497417,-4.7179956,,OPERATIONAL,,ChIJGXiZ0BsTRw0R6J-DGA5VI38,Valladolid,Castilla y León,España,No,2,centro pilates · españa
EQUÓN Fisioterapia & Salud,🧘‍♀️ Centro de yoga,"Pl. de San Nicolás, 9, 47003 Valladolid, Spain",660 30 44 26,https://www.equon.es/,info@equon.es,5,115,,"establishment, gym, health, point_of_interest",41.6593581,-4.7315762,,OPERATIONAL,,ChIJ25IerYJtRw0RUC7bhuj8Bmc,Valladolid,Castilla y León,España,No,2,centro pilates · españa
FISIOreq,🧘‍♀️ Centro de yoga,"P.º del Hospital Militar, 36, 47006 Valladolid, Spain",669 92 11 74,http://www.fisioreq.com/,carlosfreire@fisioreq.com,4.9,143,,"establishment, gym, health, point_of_interest",41.6447911,-4.7355544,,OPERATIONAL,,ChIJ57K8205tRw0Ra08uSXKbTFg,Palencia,Castilla y León,España,No,1,centro pilates · españa
Villa del Prado PHYSICAL THERAPY AND SCIENTIFIC OSTEOPATHY,🧘‍♀️ Centro de yoga,"C. del Monasterio de Santa María de Montserrat, 15, 47015 Valladolid, Spain",983 01 66 00,https://www.fisioterapiavilladelprado.es/,info@fisioterapiavilladelprado.es,4.8,136,,"establishment, gym, health, physiotherapist, point_of_interest",41.6455822,-4.7473976,,OPERATIONAL,,ChIJHTuKvkFtRw0R9OpkWJfmNqg,Valladolid,Castilla y León,España,No,2,centro pilates · españa
Gym Tres Cruces,🧘‍♀️ Centro de yoga,"Av. de las Tres Cruces, 15, 49008 Zamora, Spain",980 52 30 28,https://gim3cruces.com/,info@gim3cruces.com,4.4,158,,"establishment, gym, health, point_of_interest",41.510373,-5.7417893,,OPERATIONAL,,ChIJZ-nlIDseOQ0RQolEBP5dagU,Zamora,Castilla y León,España,No,1,centro pilates · españa
Zero | Entrenamiento y Fisioterapia,🧘‍♀️ Centro de pilates,"Av. Vía Roma, 36, 40003 Segovia, Spain",679 20 06 77,http://zerosegovia.com/,info@zerosegovia.com,4.9,106,,"establishment, health, point_of_interest",40.9536945,-4.108968,,OPERATIONAL,,ChIJm8kVxhw_QQ0R61emB8EYxzg,Toledo,Castilla-La Mancha,España,No,1,centro pilates · españa
ESPIRITU PILATES,🧘‍♀️ Centro de yoga,"C. las Flores, Nº 8, 28231 Las Rozas de Madrid, Madrid, Spain",669 66 21 44,http://www.espiritupilates.es/,info@espiritupilates.es,5,128,,"establishment, gym, health, point_of_interest",40.4906765,-3.8728267,,OPERATIONAL,,ChIJuWRJr32DQQ0R_t_5PLRD4I0,Madrid,Comunidad de Madrid,España,No,2,centro pilates · españa
PILATES Center Vicky Timón,🧘‍♀️ Centro de yoga,"C. de las Vascongadas, 9, 28292 Galapagar, Madrid, Spain",661 63 09 99,http://www.pilatesvickytimon.com/,info@pilatesvickytimon.com,5,132,,"establishment, gym, health, point_of_interest",40.6280202,-4.0268184,,OPERATIONAL,,ChIJLaehUmB0QQ0R9aOqjoeKtKI,Madrid,Comunidad de Madrid,España,No,1,centro pilates · españa
Club Pilates Las Rozas,🧘‍♀️ Centro de yoga,"C. Bruselas, 22, 28232 Las Rozas de Madrid, Madrid, Spain",681 82 93 23,https://www.clubpilates.es/location/lasrozas,lasrozas@clubpilates.es,4.5,100,,"establishment, gym, health, point_of_interest",40.5030462,-3.8931858,,OPERATIONAL,,ChIJ235H2pWDQQ0RaHQ13orXTvo,Madrid,Comunidad de Madrid,España,No,1,centro pilates · españa
Activa Pilates Moralzarzal,🧘‍♀️ Centro de yoga,"C. Lago Mayor, 1, 28411 Moralzarzal, Madrid, Spain",640 56 77 71,http://www.activamoralzarzal.com/,activapilatesmoralzarzal@gmail.com,5,183,,"establishment, gym, health, point_of_interest",40.6722636,-3.9722977,,OPERATIONAL,,ChIJr0xsVLpxQQ0RIXcyCNJolOY,Madrid,Comunidad de Madrid,España,No,1,centro pilates · españa
Estudio arete pilates,🧘‍♀️ Centro de yoga,"Calle del Acuerdo, 13, Centro, 28015 Madrid, Spain",643 62 02 84,https://linktr.ee/estudio_arete,equipo@estudioarete.com,4.9,203,,"establishment, gym, health, point_of_interest",40.426933,-3.7082546,,OPERATIONAL,,ChIJg5vuhggpQg0RZ5KA2fSJLPs,Madrid,Comunidad de Madrid,España,No,2,centro pilates · españa
Pilates enunIMPULSO,🧘‍♀️ Centro de yoga,"C. de Jorge Juan, 112, Salamanca, 28028 Madrid, Spain",650 33 68 45,http://www.pilatesenunimpulso.com/,info@pilatesenunimpulso.com,4.9,119,,"establishment, gym, health, physiotherapist, point_of_interest",40.4227568,-3.666857,,OPERATIONAL,,ChIJOWG1KKUoQg0RKRsMtW6DtxM,Madrid,Comunidad de Madrid,España,No,2,centro pilates · españa
Fitness 2.0,🧘‍♀️ Centro de yoga,"C. Sor Valentina Mirón, 20, 10600 Plasencia, Cáceres, Spain",927 41 91 10,http://www.fitness2000.es/,fitness2000@hotmail.es,4.6,243,,"establishment, gym, health, point_of_interest",40.0319095,-6.0913617,,OPERATIONAL,,ChIJ98me1UkWPg0RhXG3DLQHul0,Cáceres,Extremadura,España,No,1,centro pilates · españa
Gym and Sports Center Lanefit,🧘‍♀️ Centro de yoga,"La llave, Av. de la Industria, 13, Naves 7, 8 y 9. Polígono, 19170 El Casar, Guadalajara, Spain",722 50 46 08,https://lanefit.es/,elenangeluis@gmail.com,4.7,353,,"establishment, gym, health, point_of_interest",40.7046242,-3.4194156,,OPERATIONAL,,ChIJ-dZrvSq2Qw0RGQfbtwQ36Ro,Guadalajara,Castilla-La Mancha,España,Sí,5,centro pilates · españa
23.FIT,🧘‍♀️ Centro de yoga,"C. Cerradilla, Nº 11, 47400 Medina del Campo, Valladolid, Spain",665 28 99 58,https://www.facebook.com/Alvaro.23.fit/,castrolagomiguel@gmail.com,4.7,105,,"establishment, gym, health, point_of_interest",41.3074187,-4.9175077,,OPERATIONAL,,ChIJq-0UYBpRRw0RbTV6TDDXOc4,Valladolid,Castilla y León,España,No,3,centro pilates · españa
Centro Especializado En Fisioterapia Santa Marta De Tormes,🧘‍♀️ Centro de yoga,"Av. Enrique de Sena, 7, 37900 Santa Marta de Tormes, Salamanca, Spain",923 13 31 01,http://www.fisioterapiasantamarta.com/,espefisio.santamarta@gmail.com,4.9,218,,"establishment, gym, health, point_of_interest",40.9495286,-5.6316195,,OPERATIONAL,,ChIJHbHq5M4lPw0RPc9RY7USPGY,Salamanca,Castilla y León,España,Sí,5,centro pilates · españa
| Clínica Fisioterapia y suelo pélvico Salamanca | Julia Rodríguez,🧘‍♀️ Centro de yoga,"Camino de Salamanca, esquina con, C. Azorín, 19, 37193 Cabrerizos, Salamanca, Spain",616 54 37 48,https://fisioterapiajuliarodriguez.es/,fisiojuliarodriguez@gmail.com,5,153,,"establishment, gym, health, physiotherapist, point_of_interest",40.9777294,-5.6114842,,OPERATIONAL,,ChIJ0dCTwtglPw0R-Q1gnwO3XE8,Salamanca,Castilla y León,España,Sí,5,centro pilates · españa
María Varas Fisioterapia y Osteopatía,🧘‍♀️ Centro de pilates,"Calle de los Ovalle, 28, 37004 Salamanca, Spain",675 97 49 92,https://www.mariavarasfisioterapiayosteopatia.es/,mariavarasfisioterapia@gmail.com,5,109,,"establishment, health, point_of_interest",40.971909,-5.6547116,,OPERATIONAL,,ChIJya5TAxgnPw0R8ydrN5KYb70,Salamanca,Castilla y León,España,Sí,5,centro pilates · españa
Gimnasio Forma Salamanca,🧘‍♀️ Centro de yoga,"C. Álvaro Gil, 17, 37006 Salamanca, Spain",923 23 90 05,http://gimnasioformasalamanca.com/,gimnasioformasalamanca@gmail.com,4.4,323,,"establishment, gym, health, point_of_interest",40.9711775,-5.6640775,,OPERATIONAL,,ChIJZ3by1RkmPw0Roijrg_tmTMQ,Salamanca,Castilla y León,España,Sí,5,centro pilates · españa
Gimnasio Kronos,🧘‍♀️ Centro de yoga,"C. Maestro Ávila, 4, 37002 Salamanca, Spain",923 27 10 25,https://www.gimnasiokronos.es/,gymkronos@yahoo.es,4.6,120,,"establishment, gym, health, point_of_interest",40.9655002,-5.6690048,,OPERATIONAL,,ChIJuVjMez4mPw0R07xIyXFn2Pw,Salamanca,Castilla y León,España,No,2,centro pilates · españa
FisioMove,🧘‍♀️ Centro de yoga,"C. Greco, 15, 37004 Salamanca, Spain",696 06 18 90,http://www.fisiomovesalamanca.com/,info@fisiomovesalamanca.com,5,126,,"establishment, gym, health, point_of_interest",40.9724621,-5.6524684,,OPERATIONAL,,ChIJsWaIXicnPw0REibmkVH-Mc0,Salamanca,Castilla y León,España,Sí,5,centro pilates · españa
Gimnasio Kata,🧘‍♀️ Centro de yoga,"P.º de Carmelitas, 79-81, 37002 Salamanca, Spain",923 26 63 88,http://www.gimnasiokata.com/,info@gimnasiokata.com,4.4,261,,"establishment, gym, health, point_of_interest",40.9674333,-5.6680063,,OPERATIONAL,,ChIJD9Y50xcmPw0Rj-m7-fvxccI,Salamanca,Castilla y León,España,Sí,5,centro pilates · españa
Fisiofine Fisioterapia Guadalajara,🧘‍♀️ Centro de yoga,"C. de Rufino Blanco, 6, 19003 Guadalajara, Spain",949 22 20 90,https://fisiofine.com/,info@fisiofine.com,4.9,279,,"establishment, gym, health, physiotherapist, point_of_interest",40.6271678,-3.1668144,,OPERATIONAL,,ChIJR6oVSnerQw0RIMmITQT6IAE,Madrid,Comunidad de Madrid,España,No,1,centro pilates · españa
Jorge Garcia Personal Trainer,🧘‍♀️ Centro de yoga,"C. Zaragoza, 36, 19005 Guadalajara, Spain",646 88 32 76,https://www.jorgegarciapersonaltrainer.com/,jorgegarciapersonaltrainer@gmail.com,4.9,174,,"establishment, gym, health, point_of_interest",40.6366876,-3.1528496,,OPERATIONAL,,ChIJ55vTcJWrQw0RwRDKNshCtgg,Guadalajara,Castilla-La Mancha,España,Sí,4,centro pilates · españa
Physiotherapy Center Biosalud S L,🧘‍♀️ Centro de yoga,"C. Capitán Diego de Urbina, 3, 19002 Guadalajara, Spain",639 18 46 63,http://www.fisioterapiapeinado.com/,jesuspeinadocros@gmail.com,4.9,111,,"establishment, gym, health, physiotherapist, point_of_interest",40.6270458,-3.1608637,,OPERATIONAL,,ChIJszB2h3OrQw0REJEVikOtGpI,Madrid,Comunidad de Madrid,España,No,1,centro pilates · españa
Fisio&well,🧘‍♀️ Centro de pilates,"C. de María Pacheco, 8, 19002 Guadalajara, Spain",696 78 78 28,http://www.fisioandwell.com/,info@fisioandwell.com,5,195,,"establishment, health, point_of_interest",40.6299097,-3.1636545,,OPERATIONAL,,ChIJ5bhUU--rQw0Rb5tfH0rj4Gc,Guadalajara,Castilla-La Mancha,España,Sí,5,centro pilates · españa
Pinar Pilates,🧘‍♀️ Centro de yoga,"C. del Pinar, 8, Salamanca, 28006 Madrid, Spain",611 99 47 29,https://pinarpilates.com/,hola@pinarpilates.com,5,467,,"establishment, gym, health, point_of_interest",40.4374353,-3.6879367,,OPERATIONAL,,ChIJv1dz_BMpQg0RGB3KaWXaUZU,Madrid,Comunidad de Madrid,España,Sí,4,centro pilates · españa
Health & Pilates,🧘‍♀️ Centro de yoga,"Calle de Maldonado, 50, 1ºA, Salamanca, 28006 Madrid, Spain",654 20 75 33,http://saludypilates.com/,contacta@saludypilates.com,4.9,142,,"establishment, gym, health, point_of_interest",40.4334486,-3.6759746,,OPERATIONAL,,ChIJnXgFkbgoQg0RPu4pF7Y5WBc,Madrid,Comunidad de Madrid,España,No,2,centro pilates · españa
Club Pilates Azca,🧘‍♀️ Centro de yoga,"C. del Poeta Joan Maragall, 7, Tetuán, 28020 Madrid, Spain",660 52 28 57,https://www.clubpilates.es/location/azca,azca@clubpilates.es,4.6,126,,"establishment, gym, health, point_of_interest",40.4541709,-3.6926717,,OPERATIONAL,,ChIJlZykvlopQg0RMgA4X4cJIgA,Madrid,Comunidad de Madrid,España,No,2,centro pilates · españa
Xano Pilates & Yoga,🧘‍♀️ Centro de yoga,"Calle de las Delicias, 19, Arganzuela, 28045 Madrid, Spain",666 17 62 84,https://xanopilates.com/,info@xanopilates.com,4.7,109,,"establishment, gym, health, physiotherapist, point_of_interest",40.404185,-3.6930396,,OPERATIONAL,,ChIJQX22Zk0nQg0RUXmpg46Cji8,Madrid,Comunidad de Madrid,España,No,2,centro pilates · españa
De Novo Pilates - Princesa,🧘‍♀️ Centro de yoga,"C. de la Princesa, 29, C. de Evaristo San Miguel, 2, Moncloa - Aravaca, 28008 Madrid, Spain",656 33 85 28,http://denovopilates.com/,denovopilates@gmail.com,4.9,105,,"establishment, gym, health, point_of_interest",40.4275044,-3.7145666,,OPERATIONAL,,ChIJtUf9mTApQg0R57u3omXhR2Y,Madrid,Comunidad de Madrid,España,No,2,centro pilates · españa
Pilates Soul,🧘‍♀️ Centro de yoga,"Calle del Dr. Castelo, 10 Bis, local a, Retiro, 28009 Madrid, Spain",912 83 94 27,http://pilatessoul.es/,pilatessoul@pilatessoul.es,5,130,,"establishment, gym, health, point_of_interest",40.4203516,-3.6784045,,OPERATIONAL,,ChIJAQBwt6goQg0RwhnZMsVmtmI,Madrid,Comunidad de Madrid,España,No,2,centro pilates · españa
Studio Pilates Majadahonda,🧘‍♀️ Centro de yoga,"CC Tutti, Calle del Dr Calero, 19, Local 35, 28220 Majadahonda, Madrid, Spain",605 78 71 83,https://pilatesmajadahonda.es/,tpilates@studiopilates.es,4.9,108,,"establishment, gym, health, point_of_interest",40.4742945,-3.8715634,,OPERATIONAL,,ChIJS3vnpI6EQQ0R26Oakzrq8Ss,Madrid,Comunidad de Madrid,España,No,2,centro pilates · españa
